var divvystationsGeoJson = {"type":"FeatureCollection","features":[{"type":"Feature","properties":{"ID":11,"Station Name":"Jeffery Blvd & 71st St","Address":"Jeffery Blvd & 71st St","Total Docks":11,"Docks in Service":11,"Status":"In Service","Location":"(41.76663823695, -87.5764501141)"},"geometry":{"type":"Point","coordinates":[-87.576450114,41.766638237]}},{"type":"Feature","properties":{"ID":106,"Station Name":"State St & Pearson St","Address":"State St & Pearson St","Total Docks":27,"Docks in Service":27,"Status":"In Service","Location":"(41.897448, -87.628722)"},"geometry":{"type":"Point","coordinates":[-87.628722,41.897448]}},{"type":"Feature","properties":{"ID":661,"Station Name":"Evanston Civic Center","Address":"Evanston Civic Center","Total Docks":15,"Docks in Service":15,"Status":"In Service","Location":"(42.057044, -87.686554)"},"geometry":{"type":"Point","coordinates":[-87.686554,42.057044]}},{"type":"Feature","properties":{"ID":622,"Station Name":"California Ave & Cortez St","Address":"California Ave & Cortez St","Total Docks":15,"Docks in Service":15,"Status":"In Service","Location":"(41.900363, -87.696704)"},"geometry":{"type":"Point","coordinates":[-87.696704,41.900363]}},{"type":"Feature","properties":{"ID":665,"Station Name":"South Chicago Ave & Elliot Ave","Address":"South Chicago Ave & Elliot Ave","Total Docks":7,"Docks in Service":7,"Status":"In Service","Location":"(41.747363, -87.580046)"},"geometry":{"type":"Point","coordinates":[-87.580046,41.747363]}},{"type":"Feature","properties":{"ID":532,"Station Name":"Austin Blvd & Lake St","Address":"Austin Blvd & Lake St","Total Docks":11,"Docks in Service":11,"Status":"In Service","Location":"(41.887919, -87.774446)"},"geometry":{"type":"Point","coordinates":[-87.774446,41.887919]}},{"type":"Feature","properties":{"ID":621,"Station Name":"Aberdeen St & Randolph St","Address":"Aberdeen St & Randolph St","Total Docks":15,"Docks in Service":15,"Status":"In Service","Location":"(41.884114, -87.654264)"},"geometry":{"type":"Point","coordinates":[-87.654264,41.884114]}},{"type":"Feature","properties":{"ID":246,"Station Name":"Ashland Ave & Belle Plaine Ave","Address":"Ashland Ave & Belle Plaine Ave","Total Docks":11,"Docks in Service":11,"Status":"In Service","Location":"(41.956057, -87.668835)"},"geometry":{"type":"Point","coordinates":[-87.668835,41.956057]}},{"type":"Feature","properties":{"ID":659,"Station Name":"Leavitt St & Chicago Ave","Address":"Leavitt St & Chicago Ave","Total Docks":15,"Docks in Service":15,"Status":"In Service","Location":"(41.895501, -87.682017)"},"geometry":{"type":"Point","coordinates":[-87.682017,41.895501]}},{"type":"Feature","properties":{"ID":625,"Station Name":"Chicago Ave & Dempster St","Address":"Chicago Ave & Dempster St","Total Docks":15,"Docks in Service":15,"Status":"In Service","Location":"(42.041691, -87.680687)"},"geometry":{"type":"Point","coordinates":[-87.680687,42.041691]}},{"type":"Feature","properties":{"ID":14,"Station Name":"Morgan St & 18th St","Address":"962 W. 18th St","Total Docks":15,"Docks in Service":15,"Status":"In Service","Location":"(41.858086, -87.651073)"},"geometry":{"type":"Point","coordinates":[-87.651073,41.858086]}},{"type":"Feature","properties":{"ID":59,"Station Name":"Wabash Ave & Roosevelt Rd","Address":"1210 S Wabash Ave","Total Docks":23,"Docks in Service":23,"Status":"In Service","Location":"(41.867227, -87.625961)"},"geometry":{"type":"Point","coordinates":[-87.625961,41.867227]}},{"type":"Feature","properties":{"ID":662,"Station Name":"Dodge Ave & Mulford St","Address":"Dodge Ave & Mulford St","Total Docks":15,"Docks in Service":15,"Status":"In Service","Location":"(42.023463, -87.699595)"},"geometry":{"type":"Point","coordinates":[-87.699595,42.023463]}},{"type":"Feature","properties":{"ID":392,"Station Name":"Perry Ave & 69th St","Address":"Perry Ave & 69th St","Total Docks":11,"Docks in Service":11,"Status":"In Service","Location":"(41.76929308995, -87.6281959291)"},"geometry":{"type":"Point","coordinates":[-87.628195929,41.76929309]}},{"type":"Feature","properties":{"ID":514,"Station Name":"Ridge Blvd & Howard St","Address":"Ridge Blvd & Howard St","Total Docks":11,"Docks in Service":11,"Status":"In Service","Location":"(42.019276, -87.68452)"},"geometry":{"type":"Point","coordinates":[-87.68452,42.019276]}},{"type":"Feature","properties":{"ID":556,"Station Name":"Throop St & 52nd St","Address":"Throop St & 52nd St","Total Docks":7,"Docks in Service":7,"Status":"In Service","Location":"(41.799659, -87.657195)"},"geometry":{"type":"Point","coordinates":[-87.657195,41.799659]}},{"type":"Feature","properties":{"ID":193,"Station Name":"State St & 29th St","Address":"State St & 29th St","Total Docks":11,"Docks in Service":11,"Status":"In Service","Location":"(41.841707, -87.626938)"},"geometry":{"type":"Point","coordinates":[-87.626938,41.841707]}},{"type":"Feature","properties":{"ID":366,"Station Name":"Loomis St & Archer Ave","Address":"Loomis St & Archer Ave","Total Docks":11,"Docks in Service":11,"Status":"In Service","Location":"(41.84163253965, -87.6574349533)"},"geometry":{"type":"Point","coordinates":[-87.657434953,41.84163254]}},{"type":"Feature","properties":{"ID":626,"Station Name":"Delano Ct & Roosevelt Rd","Address":"Delano Ct & Roosevelt Rd","Total Docks":19,"Docks in Service":19,"Status":"In Service","Location":"(41.867491, -87.63219)"},"geometry":{"type":"Point","coordinates":[-87.63219,41.867491]}},{"type":"Feature","properties":{"ID":2,"Station Name":"Buckingham Fountain","Address":"Buckingham Fountain","Total Docks":39,"Docks in Service":38,"Status":"In Service","Location":"(41.87647, -87.62034)"},"geometry":{"type":"Point","coordinates":[-87.62034,41.87647]}},{"type":"Feature","properties":{"ID":398,"Station Name":"Rainbow Beach","Address":"Rainbow Beach","Total Docks":15,"Docks in Service":15,"Status":"In Service","Location":"(41.75787144829, -87.54938625)"},"geometry":{"type":"Point","coordinates":[-87.54938625,41.757871448]}},{"type":"Feature","properties":{"ID":657,"Station Name":"Wood St & Augusta Blvd","Address":"Wood St & Augusta Blvd","Total Docks":15,"Docks in Service":15,"Status":"In Service","Location":"(41.899181, -87.6722)"},"geometry":{"type":"Point","coordinates":[-87.6722,41.899181]}},{"type":"Feature","properties":{"ID":32,"Station Name":"Racine Ave & Congress Pkwy","Address":"550 S. Racine","Total Docks":19,"Docks in Service":19,"Status":"In Service","Location":"(41.87464, -87.65703)"},"geometry":{"type":"Point","coordinates":[-87.65703,41.87464]}},{"type":"Feature","properties":{"ID":663,"Station Name":"Lincolnwood Dr & Central St","Address":"Lincolnwood Dr & Central St","Total Docks":15,"Docks in Service":15,"Status":"In Service","Location":"(42.064854, -87.715297)"},"geometry":{"type":"Point","coordinates":[-87.715297,42.064854]}},{"type":"Feature","properties":{"ID":6,"Station Name":"Dusable Harbor","Address":"Dusable Harbor","Total Docks":39,"Docks in Service":39,"Status":"In Service","Location":"(41.886976, -87.612813)"},"geometry":{"type":"Point","coordinates":[-87.612813,41.886976]}},{"type":"Feature","properties":{"ID":99,"Station Name":"Lake Shore Dr & Ohio St","Address":"Lake Shore Dr & Ohio St","Total Docks":19,"Docks in Service":19,"Status":"In Service","Location":"(41.89257, -87.614492)"},"geometry":{"type":"Point","coordinates":[-87.614492,41.89257]}},{"type":"Feature","properties":{"ID":586,"Station Name":"MLK Jr Dr & 83rd St","Address":"MLK Jr Dr & 83rd St","Total Docks":11,"Docks in Service":11,"Status":"In Service","Location":"(41.743116, -87.6148)"},"geometry":{"type":"Point","coordinates":[-87.6148,41.743116]}},{"type":"Feature","properties":{"ID":89,"Station Name":"Financial Pl & Ida B Wells Dr (Temp)","Address":"Financial Pl & Ida B Wells Dr (Temp)","Total Docks":15,"Docks in Service":15,"Status":"In Service","Location":"(41.874618, -87.632882)"},"geometry":{"type":"Point","coordinates":[-87.632882,41.874618]}},{"type":"Feature","properties":{"ID":308,"Station Name":"Seeley Ave & Roscoe St","Address":"Seeley Ave & Roscoe St","Total Docks":11,"Docks in Service":11,"Status":"In Service","Location":"(41.943403, -87.679618)"},"geometry":{"type":"Point","coordinates":[-87.679618,41.943403]}},{"type":"Feature","properties":{"ID":623,"Station Name":"Michigan Ave & 8th St","Address":"Michigan Ave & 8th St","Total Docks":43,"Docks in Service":43,"Status":"In Service","Location":"(41.872773, -87.623981)"},"geometry":{"type":"Point","coordinates":[-87.623981,41.872773]}},{"type":"Feature","properties":{"ID":97,"Station Name":"Field Museum","Address":"Off Street","Total Docks":55,"Docks in Service":55,"Status":"In Service","Location":"(41.865312, -87.617867)"},"geometry":{"type":"Point","coordinates":[-87.617867,41.865312]}},{"type":"Feature","properties":{"ID":429,"Station Name":"Cottage Grove Ave & 67th St","Address":"Cottage Grove Ave & 67th St","Total Docks":11,"Docks in Service":11,"Status":"In Service","Location":"(41.77372095205, -87.60563486)"},"geometry":{"type":"Point","coordinates":[-87.60563486,41.773720952]}},{"type":"Feature","properties":{"ID":435,"Station Name":"Kedzie Ave & Roosevelt Rd","Address":"Kedzie Ave & Roosevelt Rd","Total Docks":11,"Docks in Service":11,"Status":"In Service","Location":"(41.86649278172, -87.7064961757)"},"geometry":{"type":"Point","coordinates":[-87.706496176,41.866492782]}},{"type":"Feature","properties":{"ID":563,"Station Name":"Ashland Ave & 63rd St","Address":"Ashland Ave & 63rd St","Total Docks":11,"Docks in Service":11,"Status":"In Service","Location":"(41.779374, -87.664843)"},"geometry":{"type":"Point","coordinates":[-87.664843,41.779374]}},{"type":"Feature","properties":{"ID":627,"Station Name":"LaSalle Dr & Huron St (*)","Address":"LaSalle Dr & Huron St(*)","Total Docks":20,"Docks in Service":20,"Status":"In Service","Location":"(41.894877, -87.632326)"},"geometry":{"type":"Point","coordinates":[-87.632326,41.894877]}},{"type":"Feature","properties":{"ID":214,"Station Name":"Damen Ave & Grand Ave","Address":"Damen Ave & Grand Ave","Total Docks":23,"Docks in Service":23,"Status":"In Service","Location":"(41.89122, -87.67686)"},"geometry":{"type":"Point","coordinates":[-87.67686,41.89122]}},{"type":"Feature","properties":{"ID":319,"Station Name":"Greenview Ave & Diversey Pkwy","Address":"Greenview Ave & Diversey Pkwy","Total Docks":15,"Docks in Service":15,"Status":"In Service","Location":"(41.932595, -87.665939)"},"geometry":{"type":"Point","coordinates":[-87.665939,41.932595]}},{"type":"Feature","properties":{"ID":137,"Station Name":"Morgan Ave & 14th Pl","Address":"Morgan Ave & 14th Pl","Total Docks":15,"Docks in Service":15,"Status":"In Service","Location":"(41.862378, -87.651062)"},"geometry":{"type":"Point","coordinates":[-87.651062,41.862378]}},{"type":"Feature","properties":{"ID":624,"Station Name":"Dearborn St & Van Buren St (*)","Address":"417 S Dearborn St","Total Docks":16,"Docks in Service":16,"Status":"In Service","Location":"(41.876268, -87.629155)"},"geometry":{"type":"Point","coordinates":[-87.629155,41.876268]}},{"type":"Feature","properties":{"ID":587,"Station Name":"Wabash Ave & 83rd St","Address":"Wabash Ave & 83rd St","Total Docks":11,"Docks in Service":11,"Status":"In Service","Location":"(41.743316, -87.622849)"},"geometry":{"type":"Point","coordinates":[-87.622849,41.743316]}},{"type":"Feature","properties":{"ID":631,"Station Name":"Malcolm X College","Address":"Malcolm X College","Total Docks":19,"Docks in Service":19,"Status":"In Service","Location":"(41.877618, -87.673895)"},"geometry":{"type":"Point","coordinates":[-87.673895,41.877618]}},{"type":"Feature","properties":{"ID":635,"Station Name":"Fairbanks St & Superior St (*)","Address":"Fairbanks St & Superior St (*)","Total Docks":12,"Docks in Service":12,"Status":"In Service","Location":"(41.895748, -87.620104)"},"geometry":{"type":"Point","coordinates":[-87.620104,41.895748]}},{"type":"Feature","properties":{"ID":664,"Station Name":"Leavitt St & Belmont Ave (*)","Address":"Leavitt St & Belmont Ave (*)","Total Docks":16,"Docks in Service":16,"Status":"In Service","Location":"(41.939354, -87.683282)"},"geometry":{"type":"Point","coordinates":[-87.683282,41.939354]}},{"type":"Feature","properties":{"ID":285,"Station Name":"Wood St & Hubbard St","Address":"Off Street","Total Docks":19,"Docks in Service":19,"Status":"In Service","Location":"(41.889587, -87.671956)"},"geometry":{"type":"Point","coordinates":[-87.671956,41.889587]}},{"type":"Feature","properties":{"ID":537,"Station Name":"Kenton Ave & Madison St","Address":"Kenton Ave & Madison St","Total Docks":11,"Docks in Service":11,"Status":"In Service","Location":"(41.880708, -87.741018)"},"geometry":{"type":"Point","coordinates":[-87.741018,41.880708]}},{"type":"Feature","properties":{"ID":642,"Station Name":"Latrobe Ave & Chicago Ave","Address":"Latrobe Ave & Chicago Ave","Total Docks":7,"Docks in Service":7,"Status":"In Service","Location":"(41.894745, -87.756895)"},"geometry":{"type":"Point","coordinates":[-87.756895,41.894745]}},{"type":"Feature","properties":{"ID":350,"Station Name":"Ashland Ave & Chicago Ave","Address":"Ashland Ave & Chicago Ave","Total Docks":15,"Docks in Service":15,"Status":"In Service","Location":"(41.895966, -87.667747)"},"geometry":{"type":"Point","coordinates":[-87.667747,41.895966]}},{"type":"Feature","properties":{"ID":636,"Station Name":"Orleans St & Hubbard St (*)","Address":"Orleans St & Hubbard St (*)","Total Docks":12,"Docks in Service":12,"Status":"In Service","Location":"(41.890028, -87.636618)"},"geometry":{"type":"Point","coordinates":[-87.636618,41.890028]}},{"type":"Feature","properties":{"ID":28,"Station Name":"Larrabee St & Menomonee St","Address":"590 W. Menomonee","Total Docks":14,"Docks in Service":14,"Status":"In Service","Location":"(41.91468, -87.64332)"},"geometry":{"type":"Point","coordinates":[-87.64332,41.91468]}},{"type":"Feature","properties":{"ID":632,"Station Name":"Clark St & Newport St","Address":"Clark St & Newport St","Total Docks":15,"Docks in Service":15,"Status":"In Service","Location":"(41.94454, -87.654678)"},"geometry":{"type":"Point","coordinates":[-87.654678,41.94454]}},{"type":"Feature","properties":{"ID":630,"Station Name":"Kildare Ave & Montrose Ave","Address":"On-Street","Total Docks":15,"Docks in Service":15,"Status":"In Service","Location":"(41.96108, -87.73569)"},"geometry":{"type":"Point","coordinates":[-87.73569,41.96108]}},{"type":"Feature","properties":{"ID":529,"Station Name":"Cicero Ave & Lake St","Address":"Cicero Ave & Lake St","Total Docks":11,"Docks in Service":11,"Status":"In Service","Location":"(41.886841, -87.745261)"},"geometry":{"type":"Point","coordinates":[-87.745261,41.886841]}},{"type":"Feature","properties":{"ID":653,"Station Name":"Cornell Dr & Hayes Dr","Address":"Cornell Dr & Hayes Dr","Total Docks":11,"Docks in Service":11,"Status":"In Service","Location":"(41.780595, -87.584846)"},"geometry":{"type":"Point","coordinates":[-87.584846,41.780595]}},{"type":"Feature","properties":{"ID":491,"Station Name":"Talman Ave & Addison St","Address":"Talman Ave & Addison St","Total Docks":15,"Docks in Service":15,"Status":"In Service","Location":"(41.9466358306, -87.694614758)"},"geometry":{"type":"Point","coordinates":[-87.694614758,41.946635831]}},{"type":"Feature","properties":{"ID":27,"Station Name":"Larrabee St & North Ave","Address":"1530 N.Larrabee st","Total Docks":19,"Docks in Service":18,"Status":"In Service","Location":"(41.91021, -87.6435)"},"geometry":{"type":"Point","coordinates":[-87.6435,41.91021]}},{"type":"Feature","properties":{"ID":3,"Station Name":"Shedd Aquarium","Address":"Shedd Aquarium","Total Docks":55,"Docks in Service":55,"Status":"In Service","Location":"(41.86722595682, -87.6153553902)"},"geometry":{"type":"Point","coordinates":[-87.61535539,41.867225957]}},{"type":"Feature","properties":{"ID":108,"Station Name":"Halsted St & Polk St","Address":"Halsted St & Polk St","Total Docks":19,"Docks in Service":19,"Status":"In Service","Location":"(41.87184, -87.64664)"},"geometry":{"type":"Point","coordinates":[-87.64664,41.87184]}},{"type":"Feature","properties":{"ID":581,"Station Name":"Commercial Ave & 83rd St","Address":"Commercial Ave & 83rd St","Total Docks":11,"Docks in Service":11,"Status":"In Service","Location":"(41.744615, -87.551208)"},"geometry":{"type":"Point","coordinates":[-87.551208,41.744615]}},{"type":"Feature","properties":{"ID":582,"Station Name":"Phillips Ave & 83rd St","Address":"On-Street","Total Docks":11,"Docks in Service":11,"Status":"In Service","Location":"(41.744531, -87.56506)"},"geometry":{"type":"Point","coordinates":[-87.56506,41.744531]}},{"type":"Feature","properties":{"ID":645,"Station Name":"Archer (Damen) Ave & 37th St (*)","Address":"Archer (Damen) Ave & 37th St (*)","Total Docks":12,"Docks in Service":12,"Status":"In Service","Location":"(41.826712, -87.683144)"},"geometry":{"type":"Point","coordinates":[-87.683144,41.826712]}},{"type":"Feature","properties":{"ID":628,"Station Name":"Walsh Park","Address":"Off-Street","Total Docks":23,"Docks in Service":23,"Status":"In Service","Location":"(41.91461, -87.667968)"},"geometry":{"type":"Point","coordinates":[-87.667968,41.91461]}},{"type":"Feature","properties":{"ID":536,"Station Name":"Kostner Ave & Lake St","Address":"Kostner Ave & Lake St","Total Docks":11,"Docks in Service":11,"Status":"In Service","Location":"(41.885928, -87.73541)"},"geometry":{"type":"Point","coordinates":[-87.73541,41.885928]}},{"type":"Feature","properties":{"ID":115,"Station Name":"Sheffield Ave & Wellington Ave","Address":"Sheffield Ave & Wellington Ave","Total Docks":23,"Docks in Service":23,"Status":"In Service","Location":"(41.936266, -87.652662)"},"geometry":{"type":"Point","coordinates":[-87.652662,41.936266]}},{"type":"Feature","properties":{"ID":114,"Station Name":"Sheffield Ave & Waveland Ave","Address":"Sheffield Ave & Waveland Ave","Total Docks":27,"Docks in Service":27,"Status":"In Service","Location":"(41.949399, -87.654529)"},"geometry":{"type":"Point","coordinates":[-87.654529,41.949399]}},{"type":"Feature","properties":{"ID":570,"Station Name":"Evans Ave & 75th St","Address":"Evans Ave & 75th St","Total Docks":11,"Docks in Service":11,"Status":"In Service","Location":"(41.758308, -87.606685)"},"geometry":{"type":"Point","coordinates":[-87.606685,41.758308]}},{"type":"Feature","properties":{"ID":530,"Station Name":"Laramie Ave & Kinzie St","Address":"Laramie Ave & Kinzie St","Total Docks":11,"Docks in Service":11,"Status":"In Service","Location":"(41.887832, -87.755527)"},"geometry":{"type":"Point","coordinates":[-87.755527,41.887832]}},{"type":"Feature","properties":{"ID":568,"Station Name":"Normal Ave & 72nd St","Address":"Normal Ave & 72nd St","Total Docks":11,"Docks in Service":11,"Status":"In Service","Location":"(41.763462, -87.637297)"},"geometry":{"type":"Point","coordinates":[-87.637297,41.763462]}},{"type":"Feature","properties":{"ID":85,"Station Name":"Michigan Ave & Oak St","Address":"140 E Oak St","Total Docks":23,"Docks in Service":22,"Status":"In Service","Location":"(41.90096039, -87.62377664)"},"geometry":{"type":"Point","coordinates":[-87.62377664,41.90096039]}},{"type":"Feature","properties":{"ID":132,"Station Name":"Wentworth Ave & 24th St","Address":"Wentworth Ave & 24th St","Total Docks":15,"Docks in Service":15,"Status":"In Service","Location":"(41.849237, -87.631715)"},"geometry":{"type":"Point","coordinates":[-87.631715,41.849237]}},{"type":"Feature","properties":{"ID":534,"Station Name":"Karlov Ave & Madison St","Address":"Karlov Rd & Madison St","Total Docks":11,"Docks in Service":11,"Status":"In Service","Location":"(41.88085, -87.727907)"},"geometry":{"type":"Point","coordinates":[-87.727907,41.88085]}},{"type":"Feature","properties":{"ID":502,"Station Name":"California Ave & Altgeld St","Address":"California Ave & Altgeld St","Total Docks":15,"Docks in Service":15,"Status":"In Service","Location":"(41.92669, -87.697668)"},"geometry":{"type":"Point","coordinates":[-87.697668,41.92669]}},{"type":"Feature","properties":{"ID":476,"Station Name":"Kedzie Ave & Leland Ave","Address":"Kedzie Ave & Leland Ave","Total Docks":15,"Docks in Service":15,"Status":"In Service","Location":"(41.96668636205, -87.7080519806)"},"geometry":{"type":"Point","coordinates":[-87.708051981,41.966686362]}},{"type":"Feature","properties":{"ID":94,"Station Name":"Clark St & Armitage Ave","Address":"Clark St & Armitage Ave","Total Docks":31,"Docks in Service":31,"Status":"In Service","Location":"(41.918306, -87.636282)"},"geometry":{"type":"Point","coordinates":[-87.636282,41.918306]}},{"type":"Feature","properties":{"ID":543,"Station Name":"Laramie Ave & Gladys Ave","Address":"Laramie Ave & Gladys Ave","Total Docks":11,"Docks in Service":11,"Status":"In Service","Location":"(41.875806, -87.755285)"},"geometry":{"type":"Point","coordinates":[-87.755285,41.875806]}},{"type":"Feature","properties":{"ID":654,"Station Name":"Racine Ave & Washington Blvd (*)","Address":"Racine Ave & Washington Blvd (*)","Total Docks":12,"Docks in Service":12,"Status":"In Service","Location":"(41.883073, -87.656952)"},"geometry":{"type":"Point","coordinates":[-87.656952,41.883073]}},{"type":"Feature","properties":{"ID":639,"Station Name":"Lakefront Trail & Wilson Ave","Address":"Lakefront Trail & Wilson Ave","Total Docks":15,"Docks in Service":15,"Status":"In Service","Location":"(41.965845, -87.645361)"},"geometry":{"type":"Point","coordinates":[-87.645361,41.965845]}},{"type":"Feature","properties":{"ID":158,"Station Name":"Milwaukee Ave & Wabansia Ave","Address":"Milwaukee Ave & Wabansia Ave","Total Docks":15,"Docks in Service":15,"Status":"In Service","Location":"(41.912616, -87.681391)"},"geometry":{"type":"Point","coordinates":[-87.681391,41.912616]}},{"type":"Feature","properties":{"ID":641,"Station Name":"Central Park Ave & Bloomingdale Ave","Address":"Central Park Ave & Bloomingdale Ave","Total Docks":11,"Docks in Service":11,"Status":"In Service","Location":"(41.914166, -87.716755)"},"geometry":{"type":"Point","coordinates":[-87.716755,41.914166]}},{"type":"Feature","properties":{"ID":171,"Station Name":"May St & Cullerton St","Address":"May St & Cullerton St","Total Docks":11,"Docks in Service":11,"Status":"In Service","Location":"(41.855136, -87.654127)"},"geometry":{"type":"Point","coordinates":[-87.654127,41.855136]}},{"type":"Feature","properties":{"ID":73,"Station Name":"Jefferson St & Monroe St","Address":"207 S Jefferson St","Total Docks":19,"Docks in Service":19,"Status":"In Service","Location":"(41.880422, -87.642746)"},"geometry":{"type":"Point","coordinates":[-87.642746,41.880422]}},{"type":"Feature","properties":{"ID":640,"Station Name":"Bernard St & Elston Ave","Address":"Bernard St & Elston Ave","Total Docks":11,"Docks in Service":11,"Status":"In Service","Location":"(41.949923, -87.713949)"},"geometry":{"type":"Point","coordinates":[-87.713949,41.949923]}},{"type":"Feature","properties":{"ID":541,"Station Name":"Central Ave & Harrison St","Address":"Central Ave & Harrison St","Total Docks":11,"Docks in Service":11,"Status":"In Service","Location":"(41.872993, -87.764499)"},"geometry":{"type":"Point","coordinates":[-87.764499,41.872993]}},{"type":"Feature","properties":{"ID":638,"Station Name":"Clinton St & Jackson Blvd (*)","Address":"Clinton St & Jackson Blvd (*)","Total Docks":32,"Docks in Service":31,"Status":"In Service","Location":"(41.878419, -87.640977)"},"geometry":{"type":"Point","coordinates":[-87.640977,41.878419]}},{"type":"Feature","properties":{"ID":160,"Station Name":"Campbell Ave & North Ave","Address":"Campbell Ave & North Ave","Total Docks":15,"Docks in Service":14,"Status":"In Service","Location":"(41.910535, -87.689556)"},"geometry":{"type":"Point","coordinates":[-87.689556,41.910535]}},{"type":"Feature","properties":{"ID":539,"Station Name":"Cicero Ave & Quincy St","Address":"Cicero Ave & Quincy St","Total Docks":11,"Docks in Service":11,"Status":"In Service","Location":"(41.877613, -87.745405)"},"geometry":{"type":"Point","coordinates":[-87.745405,41.877613]}},{"type":"Feature","properties":{"ID":660,"Station Name":"Sheridan Rd & Columbia Ave","Address":"Sheridan Rd & Columbia Ave","Total Docks":15,"Docks in Service":15,"Status":"In Service","Location":"(42.004583, -87.661406)"},"geometry":{"type":"Point","coordinates":[-87.661406,42.004583]}},{"type":"Feature","properties":{"ID":540,"Station Name":"Laramie Ave & Madison St","Address":"Laramie Ave & Madison St","Total Docks":11,"Docks in Service":11,"Status":"In Service","Location":"(41.880207, -87.755337)"},"geometry":{"type":"Point","coordinates":[-87.755337,41.880207]}},{"type":"Feature","properties":{"ID":644,"Station Name":"Western Ave & Fillmore St (*)","Address":"Western Ave & Fillmore St (*)","Total Docks":12,"Docks in Service":12,"Status":"In Service","Location":"(41.868563, -87.686234)"},"geometry":{"type":"Point","coordinates":[-87.686234,41.868563]}},{"type":"Feature","properties":{"ID":652,"Station Name":"Rhodes Ave & 71st St","Address":"Rhodes Ave & 71st St","Total Docks":11,"Docks in Service":11,"Status":"In Service","Location":"(41.766, -87.611726)"},"geometry":{"type":"Point","coordinates":[-87.611726,41.766]}},{"type":"Feature","properties":{"ID":651,"Station Name":"Michigan Ave & 71st St","Address":"Michigan Ave & 71st St","Total Docks":7,"Docks in Service":7,"Status":"In Service","Location":"(41.765286, -87.621748)"},"geometry":{"type":"Point","coordinates":[-87.621748,41.765286]}},{"type":"Feature","properties":{"ID":167,"Station Name":"Damen Ave & Coulter St","Address":"Damen Ave & Coulter St","Total Docks":7,"Docks in Service":7,"Status":"In Service","Location":"(41.8492, -87.67564)"},"geometry":{"type":"Point","coordinates":[-87.67564,41.8492]}},{"type":"Feature","properties":{"ID":646,"Station Name":"State St & 54th St","Address":"State St & 54th St","Total Docks":11,"Docks in Service":11,"Status":"In Service","Location":"(41.796642, -87.625923)"},"geometry":{"type":"Point","coordinates":[-87.625923,41.796642]}},{"type":"Feature","properties":{"ID":643,"Station Name":"Smith Park (*)","Address":"Smith Park (*)","Total Docks":16,"Docks in Service":16,"Status":"In Service","Location":"(41.892048, -87.689397)"},"geometry":{"type":"Point","coordinates":[-87.689397,41.892048]}},{"type":"Feature","properties":{"ID":542,"Station Name":"Central Ave & Madison St","Address":"Central Ave & Madison St","Total Docks":11,"Docks in Service":11,"Status":"In Service","Location":"(41.880121, -87.763238)"},"geometry":{"type":"Point","coordinates":[-87.763238,41.880121]}},{"type":"Feature","properties":{"ID":637,"Station Name":"Wood St & Chicago Ave (*)","Address":"Wood St & Chicago Ave (*)","Total Docks":16,"Docks in Service":16,"Status":"In Service","Location":"(41.895634, -87.672069)"},"geometry":{"type":"Point","coordinates":[-87.672069,41.895634]}},{"type":"Feature","properties":{"ID":203,"Station Name":"Western Ave & 21st St","Address":"Western Ave & 21st St","Total Docks":15,"Docks in Service":15,"Status":"In Service","Location":"(41.854109, -87.685838)"},"geometry":{"type":"Point","coordinates":[-87.685838,41.854109]}},{"type":"Feature","properties":{"ID":544,"Station Name":"Austin Blvd & Madison St","Address":"Austin Blvd & Madison St","Total Docks":11,"Docks in Service":11,"Status":"In Service","Location":"(41.880281, -87.774453)"},"geometry":{"type":"Point","coordinates":[-87.774453,41.880281]}},{"type":"Feature","properties":{"ID":198,"Station Name":"Green St & Madison St","Address":"Green St & Madison St","Total Docks":27,"Docks in Service":27,"Status":"In Service","Location":"(41.881892, -87.648789)"},"geometry":{"type":"Point","coordinates":[-87.648789,41.881892]}},{"type":"Feature","properties":{"ID":192,"Station Name":"Canal St & Adams St","Address":"Canal St & Adams St","Total Docks":47,"Docks in Service":47,"Status":"In Service","Location":"(41.879255, -87.639904)"},"geometry":{"type":"Point","coordinates":[-87.639904,41.879255]}},{"type":"Feature","properties":{"ID":200,"Station Name":"MLK Jr Dr & 47th St","Address":"MLK Jr Dr & 47th St","Total Docks":11,"Docks in Service":11,"Status":"In Service","Location":"(41.809851, -87.616279)"},"geometry":{"type":"Point","coordinates":[-87.616279,41.809851]}},{"type":"Feature","properties":{"ID":655,"Station Name":"Hoyne Ave & Balmoral Ave","Address":"Hoyne Ave & Balmoral Ave","Total Docks":15,"Docks in Service":15,"Status":"In Service","Location":"(41.979851, -87.681932)"},"geometry":{"type":"Point","coordinates":[-87.681932,41.979851]}},{"type":"Feature","properties":{"ID":201,"Station Name":"Indiana Ave & 40th St","Address":"Indiana Ave & 40th St","Total Docks":11,"Docks in Service":11,"Status":"In Service","Location":"(41.82168, -87.6216)"},"geometry":{"type":"Point","coordinates":[-87.6216,41.82168]}},{"type":"Feature","properties":{"ID":649,"Station Name":"Stewart Ave & 63rd St (*)","Address":"Stewart Ave & 63rd St (*)","Total Docks":12,"Docks in Service":12,"Status":"In Service","Location":"(41.779835, -87.634774)"},"geometry":{"type":"Point","coordinates":[-87.634774,41.779835]}},{"type":"Feature","properties":{"ID":572,"Station Name":"State St & 76th St","Address":"State St & 76th St","Total Docks":11,"Docks in Service":11,"Status":"In Service","Location":"(41.756971, -87.624621)"},"geometry":{"type":"Point","coordinates":[-87.624621,41.756971]}},{"type":"Feature","properties":{"ID":206,"Station Name":"Halsted St & Archer Ave","Address":"Halsted St & Archer Ave","Total Docks":15,"Docks in Service":15,"Status":"In Service","Location":"(41.847203, -87.646795)"},"geometry":{"type":"Point","coordinates":[-87.646795,41.847203]}},{"type":"Feature","properties":{"ID":215,"Station Name":"Damen Ave & Madison St","Address":"Damen Ave & Madison St","Total Docks":15,"Docks in Service":15,"Status":"In Service","Location":"(41.88137, -87.67493)"},"geometry":{"type":"Point","coordinates":[-87.67493,41.88137]}},{"type":"Feature","properties":{"ID":233,"Station Name":"Sangamon St & Washington Blvd (*)","Address":"Sangamon St & Washington Blvd (*)","Total Docks":16,"Docks in Service":16,"Status":"In Service","Location":"(41.883165, -87.6511)"},"geometry":{"type":"Point","coordinates":[-87.6511,41.883165]}},{"type":"Feature","properties":{"ID":181,"Station Name":"LaSalle St & Illinois St","Address":"On Street","Total Docks":31,"Docks in Service":31,"Status":"In Service","Location":"(41.890762, -87.631697)"},"geometry":{"type":"Point","coordinates":[-87.631697,41.890762]}},{"type":"Feature","properties":{"ID":658,"Station Name":"Leavitt St & Division St (*)","Address":"Leavitt St & Division St (*)","Total Docks":16,"Docks in Service":16,"Status":"In Service","Location":"(41.902997, -87.683825)"},"geometry":{"type":"Point","coordinates":[-87.683825,41.902997]}},{"type":"Feature","properties":{"ID":648,"Station Name":"Carpenter St & 63rd St","Address":"Carpenter St & 63rd St","Total Docks":7,"Docks in Service":7,"Status":"In Service","Location":"(41.77987, -87.650919)"},"geometry":{"type":"Point","coordinates":[-87.650919,41.77987]}},{"type":"Feature","properties":{"ID":127,"Station Name":"Lincoln Ave & Fullerton Ave","Address":"Lincoln Ave & Fullerton Ave","Total Docks":15,"Docks in Service":15,"Status":"In Service","Location":"(41.925905, -87.64926)"},"geometry":{"type":"Point","coordinates":[-87.64926,41.925905]}},{"type":"Feature","properties":{"ID":174,"Station Name":"Canal St & Madison St","Address":"Canal St & Madison St","Total Docks":35,"Docks in Service":33,"Status":"In Service","Location":"(41.882091, -87.639833)"},"geometry":{"type":"Point","coordinates":[-87.639833,41.882091]}},{"type":"Feature","properties":{"ID":204,"Station Name":"Prairie Ave & Garfield Blvd","Address":"Prairie Ave & Garfield Blvd","Total Docks":11,"Docks in Service":11,"Status":"In Service","Location":"(41.794853, -87.618691)"},"geometry":{"type":"Point","coordinates":[-87.618691,41.794853]}},{"type":"Feature","properties":{"ID":650,"Station Name":"Eggleston Ave & 69th St (*)","Address":"Eggleston Ave & 69th St (*)","Total Docks":12,"Docks in Service":12,"Status":"In Service","Location":"(41.768898, -87.635876)"},"geometry":{"type":"Point","coordinates":[-87.635876,41.768898]}},{"type":"Feature","properties":{"ID":647,"Station Name":"Elizabeth St & 59th St","Address":"Elizabeth St & 59th St","Total Docks":7,"Docks in Service":7,"Status":"In Service","Location":"(41.786691, -87.655859)"},"geometry":{"type":"Point","coordinates":[-87.655859,41.786691]}},{"type":"Feature","properties":{"ID":656,"Station Name":"Damen Ave & Walnut (Lake) St (*)","Address":"Damen Ave & Walnut (Lake) St (*)","Total Docks":16,"Docks in Service":16,"Status":"In Service","Location":"(41.885951, -87.677009)"},"geometry":{"type":"Point","coordinates":[-87.677009,41.885951]}},{"type":"Feature","properties":{"ID":281,"Station Name":"Western Ave & 24th St","Address":"Western Ave & 24th St","Total Docks":7,"Docks in Service":7,"Status":"In Service","Location":"(41.84847, -87.685109)"},"geometry":{"type":"Point","coordinates":[-87.685109,41.84847]}},{"type":"Feature","properties":{"ID":186,"Station Name":"Ogden Ave & Race Ave","Address":"Ogden Ave & Race Ave","Total Docks":15,"Docks in Service":15,"Status":"In Service","Location":"(41.891795, -87.658751)"},"geometry":{"type":"Point","coordinates":[-87.658751,41.891795]}},{"type":"Feature","properties":{"ID":271,"Station Name":"Cottage Grove Ave & 43rd St","Address":"Cottage Grove Ave & 43rd St","Total Docks":11,"Docks in Service":11,"Status":"In Service","Location":"(41.816499, -87.606582)"},"geometry":{"type":"Point","coordinates":[-87.606582,41.816499]}},{"type":"Feature","properties":{"ID":274,"Station Name":"Racine Ave & 15th St","Address":"Racine Ave & 15th St","Total Docks":15,"Docks in Service":15,"Status":"In Service","Location":"(41.861267, -87.656625)"},"geometry":{"type":"Point","coordinates":[-87.656625,41.861267]}},{"type":"Feature","properties":{"ID":270,"Station Name":"Stony Island Ave & 75th St","Address":"Stony Island Ave & 75th St","Total Docks":11,"Docks in Service":11,"Status":"In Service","Location":"(41.7586696704, -87.586882871)"},"geometry":{"type":"Point","coordinates":[-87.586882871,41.75866967]}},{"type":"Feature","properties":{"ID":278,"Station Name":"Wallace St & 35th St","Address":"On Street","Total Docks":15,"Docks in Service":15,"Status":"In Service","Location":"(41.830629, -87.64129)"},"geometry":{"type":"Point","coordinates":[-87.64129,41.830629]}},{"type":"Feature","properties":{"ID":405,"Station Name":"Wentworth Ave & 35th St","Address":"Wentworth Ave & 35th St","Total Docks":15,"Docks in Service":15,"Status":"In Service","Location":"(41.830777, -87.632504)"},"geometry":{"type":"Point","coordinates":[-87.632504,41.830777]}},{"type":"Feature","properties":{"ID":282,"Station Name":"Halsted St & Maxwell St","Address":"Halsted St & Maxwell St","Total Docks":15,"Docks in Service":15,"Status":"In Service","Location":"(41.864883, -87.647071)"},"geometry":{"type":"Point","coordinates":[-87.647071,41.864883]}},{"type":"Feature","properties":{"ID":589,"Station Name":"Milwaukee Ave & Cuyler Ave","Address":"Milwaukee Ave & Cuyler Ave","Total Docks":11,"Docks in Service":11,"Status":"In Service","Location":"(41.954468, -87.749594)"},"geometry":{"type":"Point","coordinates":[-87.749594,41.954468]}},{"type":"Feature","properties":{"ID":217,"Station Name":"Racine Ave (May St) & Fulton St","Address":"Racine Ave (May St) & Fulton St","Total Docks":15,"Docks in Service":13,"Status":"In Service","Location":"(41.886926, -87.656919)"},"geometry":{"type":"Point","coordinates":[-87.656919,41.886926]}},{"type":"Feature","properties":{"ID":280,"Station Name":"Morgan St & 31st St","Address":"Morgan St & 31st St","Total Docks":10,"Docks in Service":8,"Status":"In Service","Location":"(41.8378, -87.65114)"},"geometry":{"type":"Point","coordinates":[-87.65114,41.8378]}},{"type":"Feature","properties":{"ID":321,"Station Name":"Wabash Ave & 9th St","Address":"Wabash Ave & 9th St","Total Docks":19,"Docks in Service":19,"Status":"In Service","Location":"(41.870769, -87.625734)"},"geometry":{"type":"Point","coordinates":[-87.625734,41.870769]}},{"type":"Feature","properties":{"ID":335,"Station Name":"Calumet Ave & 35th St","Address":"Calumet Ave & 35th St","Total Docks":15,"Docks in Service":15,"Status":"In Service","Location":"(41.831379, -87.618034)"},"geometry":{"type":"Point","coordinates":[-87.618034,41.831379]}},{"type":"Feature","properties":{"ID":355,"Station Name":"South Shore Dr & 67th St","Address":"South Shore Dr & 67th St","Total Docks":15,"Docks in Service":15,"Status":"In Service","Location":"(41.773643, -87.567514)"},"geometry":{"type":"Point","coordinates":[-87.567514,41.773643]}},{"type":"Feature","properties":{"ID":342,"Station Name":"Wolcott Ave & Polk St","Address":"Wolcott Ave & Polk St","Total Docks":23,"Docks in Service":23,"Status":"In Service","Location":"(41.871262, -87.673688)"},"geometry":{"type":"Point","coordinates":[-87.673688,41.871262]}},{"type":"Feature","properties":{"ID":333,"Station Name":"Ashland Ave & Blackhawk St","Address":"Ashland Ave & Blackhawk St","Total Docks":15,"Docks in Service":15,"Status":"In Service","Location":"(41.907066, -87.667252)"},"geometry":{"type":"Point","coordinates":[-87.667252,41.907066]}},{"type":"Feature","properties":{"ID":369,"Station Name":"Wood St & 35th St","Address":"NA1","Total Docks":11,"Docks in Service":11,"Status":"In Service","Location":"(41.83010465416, -87.6702983089)"},"geometry":{"type":"Point","coordinates":[-87.670298309,41.830104654]}},{"type":"Feature","properties":{"ID":95,"Station Name":"Stony Island Ave & 64th St","Address":"Stony Island Ave & 64th St","Total Docks":11,"Docks in Service":11,"Status":"In Service","Location":"(41.778881, -87.586647)"},"geometry":{"type":"Point","coordinates":[-87.586647,41.778881]}},{"type":"Feature","properties":{"ID":383,"Station Name":"Ashland Ave & Harrison St","Address":"Ashland Ave & Harrison St","Total Docks":23,"Docks in Service":23,"Status":"In Service","Location":"(41.874291, -87.667246)"},"geometry":{"type":"Point","coordinates":[-87.667246,41.874291]}},{"type":"Feature","properties":{"ID":385,"Station Name":"Princeton Ave & Garfield Blvd","Address":"Princeton Ave & Garfield Blvd","Total Docks":11,"Docks in Service":11,"Status":"In Service","Location":"(41.794982, -87.633124)"},"geometry":{"type":"Point","coordinates":[-87.633124,41.794982]}},{"type":"Feature","properties":{"ID":391,"Station Name":"Halsted St & 69th St","Address":"Halsted St & 69th St","Total Docks":11,"Docks in Service":11,"Status":"In Service","Location":"(41.76906172032, -87.6446135779)"},"geometry":{"type":"Point","coordinates":[-87.644613578,41.76906172]}},{"type":"Feature","properties":{"ID":545,"Station Name":"Kostner Ave & Adams St","Address":"Kostner Ave & Adams St","Total Docks":11,"Docks in Service":11,"Status":"In Service","Location":"(41.877917, -87.735737)"},"geometry":{"type":"Point","coordinates":[-87.735737,41.877917]}},{"type":"Feature","properties":{"ID":535,"Station Name":"Pulaski Rd & Congress Pkwy","Address":"Pulaski Rd & Congress Pkwy","Total Docks":11,"Docks in Service":11,"Status":"In Service","Location":"(41.874325, -87.725704)"},"geometry":{"type":"Point","coordinates":[-87.725704,41.874325]}},{"type":"Feature","properties":{"ID":421,"Station Name":"MLK Jr Dr & 56th St (*)","Address":"MLK Jr Dr & 56th St (*)","Total Docks":12,"Docks in Service":12,"Status":"In Service","Location":"(41.79342945658, -87.6158532619)"},"geometry":{"type":"Point","coordinates":[-87.615853262,41.793429457]}},{"type":"Feature","properties":{"ID":388,"Station Name":"Halsted St & 63rd St","Address":"Halsted St & 63rd St","Total Docks":11,"Docks in Service":11,"Status":"In Service","Location":"(41.77938114228, -87.6446208145)"},"geometry":{"type":"Point","coordinates":[-87.644620815,41.779381142]}},{"type":"Feature","properties":{"ID":61,"Station Name":"Wood St & Milwaukee Ave","Address":"1416 N Wood St","Total Docks":19,"Docks in Service":18,"Status":"In Service","Location":"(41.907655, -87.672552)"},"geometry":{"type":"Point","coordinates":[-87.672552,41.907655]}},{"type":"Feature","properties":{"ID":430,"Station Name":"MLK Jr Dr & 63rd St","Address":"MLK Jr Dr & 63rd St","Total Docks":11,"Docks in Service":11,"Status":"In Service","Location":"(41.78008063659, -87.6159428567)"},"geometry":{"type":"Point","coordinates":[-87.615942857,41.780080637]}},{"type":"Feature","properties":{"ID":427,"Station Name":"Cottage Grove Ave & 63rd St","Address":"Cottage Grove Ave & 63rd St","Total Docks":15,"Docks in Service":15,"Status":"In Service","Location":"(41.78059901484, -87.606112388)"},"geometry":{"type":"Point","coordinates":[-87.606112388,41.780599015]}},{"type":"Feature","properties":{"ID":401,"Station Name":"Shields Ave & 28th Pl","Address":"Shields Ave & 28th Pl","Total Docks":11,"Docks in Service":11,"Status":"In Service","Location":"(41.842733, -87.635491)"},"geometry":{"type":"Point","coordinates":[-87.635491,41.842733]}},{"type":"Feature","properties":{"ID":426,"Station Name":"Ellis Ave & 60th St","Address":"Ellis Ave & 60th St","Total Docks":19,"Docks in Service":19,"Status":"In Service","Location":"(41.78509714636, -87.6010727606)"},"geometry":{"type":"Point","coordinates":[-87.601072761,41.785097146]}},{"type":"Feature","properties":{"ID":416,"Station Name":"Dorchester Ave & 49th St","Address":"Dorchester Ave & 49th St","Total Docks":15,"Docks in Service":15,"Status":"In Service","Location":"(41.805772, -87.592464)"},"geometry":{"type":"Point","coordinates":[-87.592464,41.805772]}},{"type":"Feature","properties":{"ID":488,"Station Name":"Pulaski Rd & Eddy St (Temp)","Address":"Pulaski Rd & Eddy St (Temp)","Total Docks":11,"Docks in Service":11,"Status":"In Service","Location":"(41.946264, -87.731023)"},"geometry":{"type":"Point","coordinates":[-87.731023,41.946264]}},{"type":"Feature","properties":{"ID":406,"Station Name":"Lake Park Ave & 35th St","Address":"Lake Park Ave & 35th St","Total Docks":19,"Docks in Service":19,"Status":"In Service","Location":"(41.83127423549, -87.6087991946)"},"geometry":{"type":"Point","coordinates":[-87.608799195,41.831274235]}},{"type":"Feature","properties":{"ID":122,"Station Name":"Ogden Ave & Congress Pkwy","Address":"Ogden Ave & Congress Pkwy","Total Docks":15,"Docks in Service":15,"Status":"In Service","Location":"(41.87501, -87.67328)"},"geometry":{"type":"Point","coordinates":[-87.67328,41.87501]}},{"type":"Feature","properties":{"ID":470,"Station Name":"Kedzie Ave & Foster Ave","Address":"Kedzie Ave & Foster Ave","Total Docks":11,"Docks in Service":11,"Status":"In Service","Location":"(41.975672, -87.709261)"},"geometry":{"type":"Point","coordinates":[-87.709261,41.975672]}},{"type":"Feature","properties":{"ID":454,"Station Name":"Broadway & Granville Ave","Address":"Broadway & Granville Ave","Total Docks":23,"Docks in Service":23,"Status":"In Service","Location":"(41.9947796884, -87.6602845349)"},"geometry":{"type":"Point","coordinates":[-87.660284535,41.994779688]}},{"type":"Feature","properties":{"ID":469,"Station Name":"St. Louis Ave & Balmoral Ave","Address":"St. Louis Ave & Balmoral Ave","Total Docks":15,"Docks in Service":15,"Status":"In Service","Location":"(41.98039423475, -87.7161149615)"},"geometry":{"type":"Point","coordinates":[-87.716114961,41.980394235]}},{"type":"Feature","properties":{"ID":374,"Station Name":"Western Ave & Walton St","Address":"Western Ave & Walton St","Total Docks":23,"Docks in Service":23,"Status":"In Service","Location":"(41.89841768945, -87.6865960164)"},"geometry":{"type":"Point","coordinates":[-87.686596016,41.898417689]}},{"type":"Feature","properties":{"ID":452,"Station Name":"Western Ave & Granville Ave","Address":"Western Ave & Granville Ave","Total Docks":11,"Docks in Service":11,"Status":"In Service","Location":"(41.99416136902, -87.689438282)"},"geometry":{"type":"Point","coordinates":[-87.689438282,41.994161369]}},{"type":"Feature","properties":{"ID":550,"Station Name":"Central Ave & Chicago Ave","Address":"Central Ave & Chicago Ave","Total Docks":11,"Docks in Service":11,"Status":"In Service","Location":"(41.894958, -87.764902)"},"geometry":{"type":"Point","coordinates":[-87.764902,41.894958]}},{"type":"Feature","properties":{"ID":399,"Station Name":"South Shore Dr & 74th St","Address":"South Shore Dr & 74th St","Total Docks":11,"Docks in Service":11,"Status":"In Service","Location":"(41.76218896038, -87.55927465)"},"geometry":{"type":"Point","coordinates":[-87.55927465,41.76218896]}},{"type":"Feature","properties":{"ID":292,"Station Name":"Southport Ave & Clark St","Address":"Southport Ave & Clark St","Total Docks":11,"Docks in Service":11,"Status":"In Service","Location":"(41.957081, -87.664199)"},"geometry":{"type":"Point","coordinates":[-87.664199,41.957081]}},{"type":"Feature","properties":{"ID":365,"Station Name":"Halsted St & North Branch St","Address":"Halsted St & North Branch St","Total Docks":15,"Docks in Service":15,"Status":"In Service","Location":"(41.89936843921, -87.6484798752)"},"geometry":{"type":"Point","coordinates":[-87.648479875,41.899368439]}},{"type":"Feature","properties":{"ID":569,"Station Name":"Woodlawn Ave & 75th St","Address":"Woodlawn Ave & 75th St","Total Docks":11,"Docks in Service":11,"Status":"In Service","Location":"(41.75916, -87.595751)"},"geometry":{"type":"Point","coordinates":[-87.595751,41.75916]}},{"type":"Feature","properties":{"ID":119,"Station Name":"Ashland Ave & Lake St (Temp)","Address":"Ashland Ave & Lake St (Temp)","Total Docks":19,"Docks in Service":19,"Status":"In Service","Location":"(41.88592, -87.66717)"},"geometry":{"type":"Point","coordinates":[-87.66717,41.88592]}},{"type":"Feature","properties":{"ID":492,"Station Name":"Leavitt St & Addison St","Address":"Leavitt St & Addison St","Total Docks":15,"Docks in Service":15,"Status":"In Service","Location":"(41.946655, -87.683359)"},"geometry":{"type":"Point","coordinates":[-87.683359,41.946655]}},{"type":"Feature","properties":{"ID":500,"Station Name":"Central Park Ave & Elbridge Ave","Address":"Central Park Ave & Elbridge Ave","Total Docks":15,"Docks in Service":15,"Status":"In Service","Location":"(41.93533728263, -87.7168892935)"},"geometry":{"type":"Point","coordinates":[-87.716889294,41.935337283]}},{"type":"Feature","properties":{"ID":494,"Station Name":"Kedzie Ave & Bryn Mawr Ave","Address":"Kedzie Ave & Bryn Mawr Ave","Total Docks":15,"Docks in Service":15,"Status":"In Service","Location":"(41.98239708485, -87.7089225202)"},"geometry":{"type":"Point","coordinates":[-87.70892252,41.982397085]}},{"type":"Feature","properties":{"ID":124,"Station Name":"Damen Ave & Cullerton St","Address":"Damen Ave & Cullerton St","Total Docks":15,"Docks in Service":15,"Status":"In Service","Location":"(41.855048, -87.675726)"},"geometry":{"type":"Point","coordinates":[-87.675726,41.855048]}},{"type":"Feature","properties":{"ID":595,"Station Name":"Wabash Ave & 87th St","Address":"Wabash Ave & 87th St","Total Docks":11,"Docks in Service":11,"Status":"In Service","Location":"(41.736646, -87.622634)"},"geometry":{"type":"Point","coordinates":[-87.622634,41.736646]}},{"type":"Feature","properties":{"ID":131,"Station Name":"Lincoln Ave & Belmont Ave","Address":"Lincoln Ave & Belmont Ave","Total Docks":15,"Docks in Service":15,"Status":"In Service","Location":"(41.939365, -87.668385)"},"geometry":{"type":"Point","coordinates":[-87.668385,41.939365]}},{"type":"Feature","properties":{"ID":459,"Station Name":"Lakefront Trail & Bryn Mawr Ave","Address":"Lakefront Trail & Bryn Mawr Ave","Total Docks":19,"Docks in Service":19,"Status":"In Service","Location":"(41.98403669612, -87.6523104689)"},"geometry":{"type":"Point","coordinates":[-87.652310469,41.984036696]}},{"type":"Feature","properties":{"ID":466,"Station Name":"Ridge Blvd & Touhy Ave","Address":"Ridge Blvd & Touhy Ave","Total Docks":11,"Docks in Service":11,"Status":"In Service","Location":"(42.01213227742, -87.6829126443)"},"geometry":{"type":"Point","coordinates":[-87.682912644,42.012132277]}},{"type":"Feature","properties":{"ID":164,"Station Name":"Franklin St & Lake St","Address":"Franklin St & Lake St","Total Docks":27,"Docks in Service":27,"Status":"In Service","Location":"(41.885837, -87.6355)"},"geometry":{"type":"Point","coordinates":[-87.6355,41.885837]}},{"type":"Feature","properties":{"ID":577,"Station Name":"Stony Island Ave & South Chicago Ave","Address":"Stony Island Ave & South Chicago Ave","Total Docks":11,"Docks in Service":11,"Status":"In Service","Location":"(41.751173, -87.585337)"},"geometry":{"type":"Point","coordinates":[-87.585337,41.751173]}},{"type":"Feature","properties":{"ID":133,"Station Name":"Kingsbury St & Kinzie St","Address":"Kingsbury St & Kinzie St","Total Docks":31,"Docks in Service":31,"Status":"In Service","Location":"(41.88917683258, -87.6385057718)"},"geometry":{"type":"Point","coordinates":[-87.638505772,41.889176833]}},{"type":"Feature","properties":{"ID":571,"Station Name":"Vernon Ave & 75th St","Address":"Vernon Ave & 75th St","Total Docks":11,"Docks in Service":11,"Status":"In Service","Location":"(41.758361, -87.614138)"},"geometry":{"type":"Point","coordinates":[-87.614138,41.758361]}},{"type":"Feature","properties":{"ID":136,"Station Name":"Racine Ave & 13th St","Address":"Racine Ave & 13th St","Total Docks":15,"Docks in Service":15,"Status":"In Service","Location":"(41.865054, -87.656959)"},"geometry":{"type":"Point","coordinates":[-87.656959,41.865054]}},{"type":"Feature","properties":{"ID":184,"Station Name":"State St & 35th St","Address":"State St & 35th St","Total Docks":15,"Docks in Service":15,"Status":"In Service","Location":"(41.83104, -87.62688)"},"geometry":{"type":"Point","coordinates":[-87.62688,41.83104]}},{"type":"Feature","properties":{"ID":323,"Station Name":"Sheridan Rd & Lawrence Ave","Address":"Sheridan Rd & Lawrence Ave","Total Docks":19,"Docks in Service":19,"Status":"In Service","Location":"(41.969517, -87.654691)"},"geometry":{"type":"Point","coordinates":[-87.654691,41.969517]}},{"type":"Feature","properties":{"ID":316,"Station Name":"Damen Ave & Sunnyside Ave","Address":"Damen Ave & Sunnyside Ave","Total Docks":19,"Docks in Service":19,"Status":"In Service","Location":"(41.96325, -87.679258)"},"geometry":{"type":"Point","coordinates":[-87.679258,41.96325]}},{"type":"Feature","properties":{"ID":547,"Station Name":"Ashland Ave & Pershing Rd","Address":"Ashland Ave & Pershing Rd","Total Docks":11,"Docks in Service":11,"Status":"In Service","Location":"(41.823465, -87.665577)"},"geometry":{"type":"Point","coordinates":[-87.665577,41.823465]}},{"type":"Feature","properties":{"ID":509,"Station Name":"Troy St & North Ave","Address":"Troy St & North Ave","Total Docks":15,"Docks in Service":15,"Status":"In Service","Location":"(41.90976930169, -87.7052804871)"},"geometry":{"type":"Point","coordinates":[-87.705280487,41.909769302]}},{"type":"Feature","properties":{"ID":126,"Station Name":"Clark St & North Ave","Address":"Clark St & North Ave","Total Docks":15,"Docks in Service":15,"Status":"In Service","Location":"(41.911974, -87.631942)"},"geometry":{"type":"Point","coordinates":[-87.631942,41.911974]}},{"type":"Feature","properties":{"ID":481,"Station Name":"California Ave & Montrose Ave","Address":"California Ave & Montrose Ave","Total Docks":15,"Docks in Service":15,"Status":"In Service","Location":"(41.961068, -87.695439)"},"geometry":{"type":"Point","coordinates":[-87.695439,41.961068]}},{"type":"Feature","properties":{"ID":579,"Station Name":"Phillips Ave & 79th St","Address":"Phillips Ave & 79th St","Total Docks":11,"Docks in Service":11,"Status":"In Service","Location":"(41.75182, -87.565211)"},"geometry":{"type":"Point","coordinates":[-87.565211,41.75182]}},{"type":"Feature","properties":{"ID":576,"Station Name":"Greenwood Ave & 79th St","Address":"Greenwood Ave & 79th St","Total Docks":11,"Docks in Service":11,"Status":"In Service","Location":"(41.751294, -87.597552)"},"geometry":{"type":"Point","coordinates":[-87.597552,41.751294]}},{"type":"Feature","properties":{"ID":504,"Station Name":"Campbell Ave & Fullerton Ave","Address":"Campbell Ave & Fullerton Ave","Total Docks":15,"Docks in Service":15,"Status":"In Service","Location":"(41.92463247165, -87.6893070063)"},"geometry":{"type":"Point","coordinates":[-87.689307006,41.924632472]}},{"type":"Feature","properties":{"ID":356,"Station Name":"Stony Island Ave & 71st St","Address":"Stony Island Ave & 71st St","Total Docks":11,"Docks in Service":11,"Status":"In Service","Location":"(41.7664929373, -87.5864608775)"},"geometry":{"type":"Point","coordinates":[-87.586460878,41.766492937]}},{"type":"Feature","properties":{"ID":418,"Station Name":"Ellis Ave & 53rd St","Address":"Ellis Ave & 53rd St","Total Docks":11,"Docks in Service":11,"Status":"In Service","Location":"(41.79933626261, -87.6009581145)"},"geometry":{"type":"Point","coordinates":[-87.600958115,41.799336263]}},{"type":"Feature","properties":{"ID":134,"Station Name":"Peoria St & Jackson Blvd","Address":"Peoria St & Jackson Blvd","Total Docks":19,"Docks in Service":19,"Status":"In Service","Location":"(41.877749, -87.649633)"},"geometry":{"type":"Point","coordinates":[-87.649633,41.877749]}},{"type":"Feature","properties":{"ID":620,"Station Name":"Orleans St & Chestnut St (NEXT Apts)","Address":"Orleans St & Chestnut St (NEXT Apts)","Total Docks":15,"Docks in Service":14,"Status":"In Service","Location":"(41.898203, -87.637536)"},"geometry":{"type":"Point","coordinates":[-87.637536,41.898203]}},{"type":"Feature","properties":{"ID":575,"Station Name":"Cottage Grove Ave & 78th St","Address":"Cottage Grove Ave & 78th St","Total Docks":11,"Docks in Service":11,"Status":"In Service","Location":"(41.753174, -87.605026)"},"geometry":{"type":"Point","coordinates":[-87.605026,41.753174]}},{"type":"Feature","properties":{"ID":393,"Station Name":"Calumet Ave & 71st St","Address":"Calumet Ave & 71st St","Total Docks":11,"Docks in Service":11,"Status":"In Service","Location":"(41.76550800581, -87.616917925)"},"geometry":{"type":"Point","coordinates":[-87.616917925,41.765508006]}},{"type":"Feature","properties":{"ID":231,"Station Name":"Sheridan Rd & Montrose Ave","Address":"Sheridan Rd & Montrose Ave","Total Docks":23,"Docks in Service":23,"Status":"In Service","Location":"(41.96167, -87.65464)"},"geometry":{"type":"Point","coordinates":[-87.65464,41.96167]}},{"type":"Feature","properties":{"ID":390,"Station Name":"Wentworth Ave & 63rd St","Address":"Wentworth Ave & 63rd St","Total Docks":11,"Docks in Service":11,"Status":"In Service","Location":"(41.78007963264, -87.6297463052)"},"geometry":{"type":"Point","coordinates":[-87.629746305,41.780079633]}},{"type":"Feature","properties":{"ID":456,"Station Name":"2112 W Peterson Ave","Address":"2112 W Peterson Ave","Total Docks":11,"Docks in Service":11,"Status":"In Service","Location":"(41.991178, -87.683593)"},"geometry":{"type":"Point","coordinates":[-87.683593,41.991178]}},{"type":"Feature","properties":{"ID":272,"Station Name":"Indiana Ave & 31st St","Address":"Indiana Ave & 31st St","Total Docks":11,"Docks in Service":11,"Status":"In Service","Location":"(41.838842, -87.621857)"},"geometry":{"type":"Point","coordinates":[-87.621857,41.838842]}},{"type":"Feature","properties":{"ID":619,"Station Name":"Keystone Ave & Fullerton Ave","Address":"Keystone Ave & Fullerton Ave","Total Docks":11,"Docks in Service":11,"Status":"In Service","Location":"(41.924377, -87.728231)"},"geometry":{"type":"Point","coordinates":[-87.728231,41.924377]}},{"type":"Feature","properties":{"ID":248,"Station Name":"Woodlawn Ave & 55th St","Address":"Woodlawn Ave & 55th St","Total Docks":19,"Docks in Service":19,"Status":"In Service","Location":"(41.795264, -87.596471)"},"geometry":{"type":"Point","coordinates":[-87.596471,41.795264]}},{"type":"Feature","properties":{"ID":528,"Station Name":"Pulaski Rd & Lake St","Address":"Pulaski Rd & Lake St","Total Docks":11,"Docks in Service":11,"Status":"In Service","Location":"(41.885409, -87.726491)"},"geometry":{"type":"Point","coordinates":[-87.726491,41.885409]}},{"type":"Feature","properties":{"ID":553,"Station Name":"Elizabeth St & 47th St","Address":"Elizabeth St & 47th St","Total Docks":11,"Docks in Service":11,"Status":"In Service","Location":"(41.80839, -87.656526)"},"geometry":{"type":"Point","coordinates":[-87.656526,41.80839]}},{"type":"Feature","properties":{"ID":223,"Station Name":"Clifton Ave & Armitage Ave","Address":"Clifton Ave & Armitage Ave","Total Docks":15,"Docks in Service":15,"Status":"In Service","Location":"(41.918216, -87.656936)"},"geometry":{"type":"Point","coordinates":[-87.656936,41.918216]}},{"type":"Feature","properties":{"ID":594,"Station Name":"Western Blvd & 48th Pl","Address":"Western Blvd & 48th Pl","Total Docks":11,"Docks in Service":11,"Status":"In Service","Location":"(41.805661, -87.683392)"},"geometry":{"type":"Point","coordinates":[-87.683392,41.805661]}},{"type":"Feature","properties":{"ID":396,"Station Name":"Yates Blvd & 75th St","Address":"Yates Blvd & 75th St","Total Docks":11,"Docks in Service":11,"Status":"In Service","Location":"(41.758768, -87.56644)"},"geometry":{"type":"Point","coordinates":[-87.56644,41.758768]}},{"type":"Feature","properties":{"ID":555,"Station Name":"Ashland Ave & 50th St","Address":"Ashland Ave & 50th St","Total Docks":11,"Docks in Service":11,"Status":"In Service","Location":"(41.803023, -87.664699)"},"geometry":{"type":"Point","coordinates":[-87.664699,41.803023]}},{"type":"Feature","properties":{"ID":286,"Station Name":"Franklin St & Quincy St","Address":"Franklin St & Quincy St","Total Docks":23,"Docks in Service":23,"Status":"In Service","Location":"(41.878724, -87.634793)"},"geometry":{"type":"Point","coordinates":[-87.634793,41.878724]}},{"type":"Feature","properties":{"ID":118,"Station Name":"Sedgwick St & North Ave","Address":"Sedgwick St & North Ave","Total Docks":19,"Docks in Service":19,"Status":"In Service","Location":"(41.911386, -87.638677)"},"geometry":{"type":"Point","coordinates":[-87.638677,41.911386]}},{"type":"Feature","properties":{"ID":301,"Station Name":"Clark St & Schiller St","Address":"Clark St & Schiller St","Total Docks":19,"Docks in Service":19,"Status":"In Service","Location":"(41.907993, -87.631501)"},"geometry":{"type":"Point","coordinates":[-87.631501,41.907993]}},{"type":"Feature","properties":{"ID":409,"Station Name":"Shields Ave & 43rd St","Address":"Shields Ave & 43rd St","Total Docks":11,"Docks in Service":11,"Status":"In Service","Location":"(41.81620767856, -87.6348193497)"},"geometry":{"type":"Point","coordinates":[-87.63481935,41.816207679]}},{"type":"Feature","properties":{"ID":583,"Station Name":"Stony Island Ave & 82nd St","Address":"Stony Island Ave & 82nd St","Total Docks":11,"Docks in Service":11,"Status":"In Service","Location":"(41.746559, -87.586005)"},"geometry":{"type":"Point","coordinates":[-87.586005,41.746559]}},{"type":"Feature","properties":{"ID":395,"Station Name":"Jeffery Blvd & 76th St","Address":"Jeffery Blvd & 76th St","Total Docks":11,"Docks in Service":11,"Status":"In Service","Location":"(41.75712006802, -87.5758393587)"},"geometry":{"type":"Point","coordinates":[-87.575839359,41.757120068]}},{"type":"Feature","properties":{"ID":117,"Station Name":"Wilton Ave & Belmont Ave","Address":"Wilton Ave & Belmont Ave","Total Docks":27,"Docks in Service":27,"Status":"In Service","Location":"(41.94018, -87.65304)"},"geometry":{"type":"Point","coordinates":[-87.65304,41.94018]}},{"type":"Feature","properties":{"ID":20,"Station Name":"Sheffield Ave & Kingsbury St","Address":"Sheffield Ave & Kingsbury St","Total Docks":15,"Docks in Service":14,"Status":"In Service","Location":"(41.910522, -87.653106)"},"geometry":{"type":"Point","coordinates":[-87.653106,41.910522]}},{"type":"Feature","properties":{"ID":585,"Station Name":"Cottage Grove Ave & 83rd St","Address":"Cottage Grove Ave & 83rd St","Total Docks":11,"Docks in Service":11,"Status":"In Service","Location":"(41.744053, -87.604786)"},"geometry":{"type":"Point","coordinates":[-87.604786,41.744053]}},{"type":"Feature","properties":{"ID":551,"Station Name":"Hoyne Ave & 47th St","Address":"Hoyne Ave & 47th St","Total Docks":11,"Docks in Service":11,"Status":"In Service","Location":"(41.808227, -87.67718)"},"geometry":{"type":"Point","coordinates":[-87.67718,41.808227]}},{"type":"Feature","properties":{"ID":584,"Station Name":"Ellis Ave & 83rd St","Address":"Ellis Ave & 83rd St","Total Docks":11,"Docks in Service":11,"Status":"In Service","Location":"(41.744123, -87.599034)"},"geometry":{"type":"Point","coordinates":[-87.599034,41.744123]}},{"type":"Feature","properties":{"ID":12,"Station Name":"South Shore Dr & 71st St","Address":"MLSW","Total Docks":15,"Docks in Service":15,"Status":"In Service","Location":"(41.7664094567, -87.5656875719)"},"geometry":{"type":"Point","coordinates":[-87.565687572,41.766409457]}},{"type":"Feature","properties":{"ID":415,"Station Name":"Calumet Ave & 51st St","Address":"Calumet Ave & 51st St","Total Docks":11,"Docks in Service":11,"Status":"In Service","Location":"(41.80229465088, -87.6180535802)"},"geometry":{"type":"Point","coordinates":[-87.61805358,41.802294651]}},{"type":"Feature","properties":{"ID":412,"Station Name":"Princeton Ave & 47th St","Address":"Princeton Ave & 47th St","Total Docks":11,"Docks in Service":11,"Status":"In Service","Location":"(41.80931770924, -87.633449288)"},"geometry":{"type":"Point","coordinates":[-87.633449288,41.809317709]}},{"type":"Feature","properties":{"ID":309,"Station Name":"Leavitt St & Armitage Ave","Address":"Leavitt St & Armitage Ave","Total Docks":11,"Docks in Service":11,"Status":"In Service","Location":"(41.917805, -87.682437)"},"geometry":{"type":"Point","coordinates":[-87.682437,41.917805]}},{"type":"Feature","properties":{"ID":410,"Station Name":"Prairie Ave & 43rd St","Address":"Prairie Ave & 43rd St","Total Docks":15,"Docks in Service":15,"Status":"In Service","Location":"(41.81665889302, -87.6194124619)"},"geometry":{"type":"Point","coordinates":[-87.619412462,41.816658893]}},{"type":"Feature","properties":{"ID":109,"Station Name":"900 W Harrison St","Address":"900 W Harrison St","Total Docks":19,"Docks in Service":19,"Status":"In Service","Location":"(41.874754, -87.649807)"},"geometry":{"type":"Point","coordinates":[-87.649807,41.874754]}},{"type":"Feature","properties":{"ID":31,"Station Name":"Franklin St & Chicago Ave","Address":"805 N. Franklin St","Total Docks":23,"Docks in Service":23,"Status":"In Service","Location":"(41.896776, -87.635633)"},"geometry":{"type":"Point","coordinates":[-87.635633,41.896776]}},{"type":"Feature","properties":{"ID":113,"Station Name":"Bissell St & Armitage Ave","Address":"Bissell St & Armitage Ave","Total Docks":15,"Docks in Service":15,"Status":"In Service","Location":"(41.91844, -87.65222)"},"geometry":{"type":"Point","coordinates":[-87.65222,41.91844]}},{"type":"Feature","properties":{"ID":103,"Station Name":"Clinton St & Polk St (*)","Address":"Clinton St & Polk St (*)","Total Docks":16,"Docks in Service":16,"Status":"In Service","Location":"(41.87146651779, -87.6409491327)"},"geometry":{"type":"Point","coordinates":[-87.640949133,41.871466518]}},{"type":"Feature","properties":{"ID":110,"Station Name":"Dearborn St & Erie St","Address":"Dearborn St & Erie St","Total Docks":27,"Docks in Service":27,"Status":"In Service","Location":"(41.893992, -87.629318)"},"geometry":{"type":"Point","coordinates":[-87.629318,41.893992]}},{"type":"Feature","properties":{"ID":121,"Station Name":"Blackstone Ave & Hyde Park Blvd","Address":"Blackstone Ave & Hyde Park Blvd","Total Docks":19,"Docks in Service":19,"Status":"In Service","Location":"(41.802562, -87.590368)"},"geometry":{"type":"Point","coordinates":[-87.590368,41.802562]}},{"type":"Feature","properties":{"ID":411,"Station Name":"Halsted St & 47th Pl","Address":"Halsted St & 47th Pl","Total Docks":11,"Docks in Service":11,"Status":"In Service","Location":"(41.80813391481, -87.6456165545)"},"geometry":{"type":"Point","coordinates":[-87.645616554,41.808133915]}},{"type":"Feature","properties":{"ID":101,"Station Name":"63rd St Beach","Address":"63rd St Beach","Total Docks":15,"Docks in Service":15,"Status":"In Service","Location":"(41.78101637196, -87.5761197602)"},"geometry":{"type":"Point","coordinates":[-87.57611976,41.781016372]}},{"type":"Feature","properties":{"ID":135,"Station Name":"Halsted St & 21st St","Address":"Halsted St & 21st St","Total Docks":11,"Docks in Service":11,"Status":"In Service","Location":"(41.85378, -87.64665)"},"geometry":{"type":"Point","coordinates":[-87.64665,41.85378]}},{"type":"Feature","properties":{"ID":149,"Station Name":"Calumet Ave & 33rd St","Address":"Calumet Ave & 33rd St","Total Docks":11,"Docks in Service":11,"Status":"In Service","Location":"(41.8349, -87.61793)"},"geometry":{"type":"Point","coordinates":[-87.61793,41.8349]}},{"type":"Feature","properties":{"ID":588,"Station Name":"South Chicago Ave & 83rd St","Address":"South Chicago Ave & 83rd St","Total Docks":11,"Docks in Service":11,"Status":"In Service","Location":"(41.743921, -87.575225)"},"geometry":{"type":"Point","coordinates":[-87.575225,41.743921]}},{"type":"Feature","properties":{"ID":339,"Station Name":"Emerald Ave & 31st St","Address":"Emerald Ave & 31st St","Total Docks":11,"Docks in Service":11,"Status":"In Service","Location":"(41.838198, -87.645143)"},"geometry":{"type":"Point","coordinates":[-87.645143,41.838198]}},{"type":"Feature","properties":{"ID":130,"Station Name":"Damen Ave & Division St","Address":"Damen Ave & Division St","Total Docks":19,"Docks in Service":19,"Status":"In Service","Location":"(41.903266, -87.678435)"},"geometry":{"type":"Point","coordinates":[-87.678435,41.903266]}},{"type":"Feature","properties":{"ID":129,"Station Name":"Blue Island Ave & 18th St","Address":"Blue Island Ave & 18th St","Total Docks":15,"Docks in Service":15,"Status":"In Service","Location":"(41.857556, -87.661535)"},"geometry":{"type":"Point","coordinates":[-87.661535,41.857556]}},{"type":"Feature","properties":{"ID":143,"Station Name":"Sedgwick St & Webster Ave","Address":"Sedgwick St & Webster Ave","Total Docks":15,"Docks in Service":15,"Status":"In Service","Location":"(41.922167, -87.638888)"},"geometry":{"type":"Point","coordinates":[-87.638888,41.922167]}},{"type":"Feature","properties":{"ID":222,"Station Name":"Milwaukee Ave & Rockwell St","Address":"Milwaukee Ave & Rockwell St","Total Docks":19,"Docks in Service":19,"Status":"In Service","Location":"(41.920195, -87.693033)"},"geometry":{"type":"Point","coordinates":[-87.693033,41.920195]}},{"type":"Feature","properties":{"ID":336,"Station Name":"Cottage Grove Ave & 47th St","Address":"Off Street","Total Docks":15,"Docks in Service":15,"Status":"In Service","Location":"(41.809855, -87.606755)"},"geometry":{"type":"Point","coordinates":[-87.606755,41.809855]}},{"type":"Feature","properties":{"ID":148,"Station Name":"State St & 33rd St","Address":"State St & 33rd St","Total Docks":15,"Docks in Service":15,"Status":"In Service","Location":"(41.834734, -87.625813)"},"geometry":{"type":"Point","coordinates":[-87.625813,41.834734]}},{"type":"Feature","properties":{"ID":205,"Station Name":"Paulina St & 18th St","Address":"Paulina St & 18th St","Total Docks":15,"Docks in Service":15,"Status":"In Service","Location":"(41.857901, -87.668745)"},"geometry":{"type":"Point","coordinates":[-87.668745,41.857901]}},{"type":"Feature","properties":{"ID":377,"Station Name":"Kedzie Ave & Lake St","Address":"Kedzie Ave & Lake St","Total Docks":15,"Docks in Service":15,"Status":"In Service","Location":"(41.88460328501, -87.7063037436)"},"geometry":{"type":"Point","coordinates":[-87.706303744,41.884603285]}},{"type":"Feature","properties":{"ID":191,"Station Name":"Canal St & Monroe St (*)","Address":"Canal St & Monroe St (*)","Total Docks":28,"Docks in Service":28,"Status":"In Service","Location":"(41.880381, -87.639507)"},"geometry":{"type":"Point","coordinates":[-87.639507,41.880381]}},{"type":"Feature","properties":{"ID":263,"Station Name":"Rhodes Ave & 32nd St","Address":"Rhodes Ave & 32nd St","Total Docks":11,"Docks in Service":11,"Status":"In Service","Location":"(41.836208, -87.613533)"},"geometry":{"type":"Point","coordinates":[-87.613533,41.836208]}},{"type":"Feature","properties":{"ID":18,"Station Name":"Wacker Dr & Washington St","Address":"Wacker Dr & Washington St","Total Docks":19,"Docks in Service":19,"Status":"In Service","Location":"(41.883132, -87.637321)"},"geometry":{"type":"Point","coordinates":[-87.637321,41.883132]}},{"type":"Feature","properties":{"ID":480,"Station Name":"Albany Ave & Montrose Ave","Address":"Albany Ave & Montrose Ave","Total Docks":11,"Docks in Service":11,"Status":"In Service","Location":"(41.961041, -87.705866)"},"geometry":{"type":"Point","coordinates":[-87.705866,41.961041]}},{"type":"Feature","properties":{"ID":175,"Station Name":"Wells St & Polk St","Address":"Wells St & Polk St","Total Docks":19,"Docks in Service":19,"Status":"In Service","Location":"(41.872596, -87.633502)"},"geometry":{"type":"Point","coordinates":[-87.633502,41.872596]}},{"type":"Feature","properties":{"ID":150,"Station Name":"Fort Dearborn Dr & 31st St","Address":"Fort Dearborn Dr & 31st St","Total Docks":27,"Docks in Service":27,"Status":"In Service","Location":"(41.838556, -87.608218)"},"geometry":{"type":"Point","coordinates":[-87.608218,41.838556]}},{"type":"Feature","properties":{"ID":197,"Station Name":"Michigan Ave & Madison St","Address":"Michigan Ave & Madison St","Total Docks":19,"Docks in Service":18,"Status":"In Service","Location":"(41.882134, -87.625125)"},"geometry":{"type":"Point","coordinates":[-87.625125,41.882134]}},{"type":"Feature","properties":{"ID":210,"Station Name":"Ashland Ave & Division St","Address":"Ashland Ave & Division St","Total Docks":27,"Docks in Service":27,"Status":"In Service","Location":"(41.90345, -87.667747)"},"geometry":{"type":"Point","coordinates":[-87.667747,41.90345]}},{"type":"Feature","properties":{"ID":381,"Station Name":"Western Ave & Monroe St","Address":"Western Ave & Monroe St","Total Docks":15,"Docks in Service":15,"Status":"In Service","Location":"(41.8797877089, -87.686112808)"},"geometry":{"type":"Point","coordinates":[-87.686112808,41.879787709]}},{"type":"Feature","properties":{"ID":531,"Station Name":"Central Ave & Lake St","Address":"Central Ave & Lake St","Total Docks":11,"Docks in Service":11,"Status":"In Service","Location":"(41.887664, -87.765469)"},"geometry":{"type":"Point","coordinates":[-87.765469,41.887664]}},{"type":"Feature","properties":{"ID":315,"Station Name":"Elston Ave & Wabansia Ave","Address":"Elston Ave & Wabansia Ave","Total Docks":23,"Docks in Service":23,"Status":"In Service","Location":"(41.912919, -87.664169)"},"geometry":{"type":"Point","coordinates":[-87.664169,41.912919]}},{"type":"Feature","properties":{"ID":170,"Station Name":"Clinton St & 18th St","Address":"Clinton St & 18th St","Total Docks":15,"Docks in Service":15,"Status":"In Service","Location":"(41.85795, -87.640826)"},"geometry":{"type":"Point","coordinates":[-87.640826,41.85795]}},{"type":"Feature","properties":{"ID":178,"Station Name":"State St & 19th St","Address":"State St & 19th St","Total Docks":15,"Docks in Service":15,"Status":"In Service","Location":"(41.856594, -87.627542)"},"geometry":{"type":"Point","coordinates":[-87.627542,41.856594]}},{"type":"Feature","properties":{"ID":147,"Station Name":"Indiana Ave & 26th St","Address":"Indiana Ave & 26th St","Total Docks":15,"Docks in Service":15,"Status":"In Service","Location":"(41.845687, -87.622481)"},"geometry":{"type":"Point","coordinates":[-87.622481,41.845687]}},{"type":"Feature","properties":{"ID":439,"Station Name":"Kedzie Ave & 21st St","Address":"Kedzie Ave & 21st St","Total Docks":11,"Docks in Service":11,"Status":"In Service","Location":"(41.85353363213, -87.7050730318)"},"geometry":{"type":"Point","coordinates":[-87.705073032,41.853533632]}},{"type":"Feature","properties":{"ID":261,"Station Name":"Hermitage Ave & Polk St","Address":"Hermitage Ave & Polk St","Total Docks":15,"Docks in Service":15,"Status":"In Service","Location":"(41.871514, -87.669886)"},"geometry":{"type":"Point","coordinates":[-87.669886,41.871514]}},{"type":"Feature","properties":{"ID":455,"Station Name":"Maplewood Ave & Peterson Ave","Address":"Maplewood Ave & Peterson Ave","Total Docks":11,"Docks in Service":11,"Status":"In Service","Location":"(41.99023602867, -87.6933696402)"},"geometry":{"type":"Point","coordinates":[-87.69336964,41.990236029]}},{"type":"Feature","properties":{"ID":431,"Station Name":"Eberhart Ave & 61st St","Address":"Eberhart Ave & 61st St","Total Docks":11,"Docks in Service":11,"Status":"In Service","Location":"(41.78414169317, -87.6133078304)"},"geometry":{"type":"Point","coordinates":[-87.61330783,41.784141693]}},{"type":"Feature","properties":{"ID":375,"Station Name":"Sacramento Blvd & Franklin Blvd","Address":"Sacramento Blvd & Franklin Blvd","Total Docks":11,"Docks in Service":11,"Status":"In Service","Location":"(41.889727, -87.70103)"},"geometry":{"type":"Point","coordinates":[-87.70103,41.889727]}},{"type":"Feature","properties":{"ID":265,"Station Name":"Cottage Grove Ave & Oakwood Blvd","Address":"Cottage Grove Ave & Oakwood Blvd","Total Docks":15,"Docks in Service":15,"Status":"In Service","Location":"(41.822985, -87.6071)"},"geometry":{"type":"Point","coordinates":[-87.6071,41.822985]}},{"type":"Feature","properties":{"ID":566,"Station Name":"Ashland Ave & 69th St","Address":"Ashland Ave & 69th St","Total Docks":11,"Docks in Service":11,"Status":"In Service","Location":"(41.768726, -87.664069)"},"geometry":{"type":"Point","coordinates":[-87.664069,41.768726]}},{"type":"Feature","properties":{"ID":533,"Station Name":"Central Park Blvd & 5th Ave","Address":"Central Park Blvd & 5th Ave","Total Docks":11,"Docks in Service":11,"Status":"In Service","Location":"(41.875679, -87.71547)"},"geometry":{"type":"Point","coordinates":[-87.71547,41.875679]}},{"type":"Feature","properties":{"ID":590,"Station Name":"Kilbourn Ave & Irving Park Rd","Address":"Kilbourn Ave & Irving Park Rd","Total Docks":11,"Docks in Service":11,"Status":"In Service","Location":"(41.953733, -87.740569)"},"geometry":{"type":"Point","coordinates":[-87.740569,41.953733]}},{"type":"Feature","properties":{"ID":482,"Station Name":"Campbell Ave & Montrose Ave","Address":"Campbell Ave & Montrose Ave","Total Docks":15,"Docks in Service":15,"Status":"In Service","Location":"(41.96152593287, -87.6911650414)"},"geometry":{"type":"Point","coordinates":[-87.691165041,41.961525933]}},{"type":"Feature","properties":{"ID":22,"Station Name":"May St & Taylor St","Address":"1134 W. Taylor St","Total Docks":15,"Docks in Service":15,"Status":"In Service","Location":"(41.8694821, -87.6554864)"},"geometry":{"type":"Point","coordinates":[-87.6554864,41.8694821]}},{"type":"Feature","properties":{"ID":227,"Station Name":"Southport Ave & Waveland Ave","Address":"Southport Ave & Waveland Ave","Total Docks":23,"Docks in Service":23,"Status":"In Service","Location":"(41.94815, -87.66394)"},"geometry":{"type":"Point","coordinates":[-87.66394,41.94815]}},{"type":"Feature","properties":{"ID":37,"Station Name":"Dearborn St & Adams St","Address":"59 W. Adams St","Total Docks":19,"Docks in Service":19,"Status":"In Service","Location":"(41.8793563587, -87.6297910363)"},"geometry":{"type":"Point","coordinates":[-87.629791036,41.879356359]}},{"type":"Feature","properties":{"ID":55,"Station Name":"Halsted St & Roosevelt Rd","Address":"850 W Roosevelt Rd","Total Docks":23,"Docks in Service":23,"Status":"In Service","Location":"(41.867324, -87.648625)"},"geometry":{"type":"Point","coordinates":[-87.648625,41.867324]}},{"type":"Feature","properties":{"ID":212,"Station Name":"Wells St & Hubbard St","Address":"Wells St & Hubbard St","Total Docks":31,"Docks in Service":31,"Status":"In Service","Location":"(41.889906, -87.634266)"},"geometry":{"type":"Point","coordinates":[-87.634266,41.889906]}},{"type":"Feature","properties":{"ID":218,"Station Name":"Wells St & 19th St","Address":"Wells St & 19th St","Total Docks":11,"Docks in Service":10,"Status":"In Service","Location":"(41.856802, -87.633879)"},"geometry":{"type":"Point","coordinates":[-87.633879,41.856802]}},{"type":"Feature","properties":{"ID":368,"Station Name":"Ashland Ave & Archer Ave","Address":"Ashland Ave & Archer Ave","Total Docks":15,"Docks in Service":15,"Status":"In Service","Location":"(41.83920868403, -87.6656098589)"},"geometry":{"type":"Point","coordinates":[-87.665609859,41.839208684]}},{"type":"Feature","properties":{"ID":499,"Station Name":"Kosciuszko Park","Address":"Kosciuszko Park","Total Docks":15,"Docks in Service":15,"Status":"In Service","Location":"(41.93058537138, -87.7237773635)"},"geometry":{"type":"Point","coordinates":[-87.723777364,41.930585371]}},{"type":"Feature","properties":{"ID":477,"Station Name":"Manor Ave & Leland Ave","Address":"Manor Ave & Leland Ave","Total Docks":11,"Docks in Service":11,"Status":"In Service","Location":"(41.965875, -87.700825)"},"geometry":{"type":"Point","coordinates":[-87.700825,41.965875]}},{"type":"Feature","properties":{"ID":472,"Station Name":"Lincoln Ave & Winona St","Address":"Lincoln Ave & Winona St","Total Docks":15,"Docks in Service":15,"Status":"In Service","Location":"(41.97491129677, -87.6925025594)"},"geometry":{"type":"Point","coordinates":[-87.692502559,41.974911297]}},{"type":"Feature","properties":{"ID":243,"Station Name":"Lincoln Ave & Sunnyside Ave","Address":"Lincoln Ave & Sunnyside Ave","Total Docks":15,"Docks in Service":15,"Status":"In Service","Location":"(41.963004, -87.684781)"},"geometry":{"type":"Point","coordinates":[-87.684781,41.963004]}},{"type":"Feature","properties":{"ID":558,"Station Name":"Ashland Ave & Garfield Blvd","Address":"Ashland Ave & Garfield Blvd","Total Docks":11,"Docks in Service":11,"Status":"In Service","Location":"(41.792822, -87.664429)"},"geometry":{"type":"Point","coordinates":[-87.664429,41.792822]}},{"type":"Feature","properties":{"ID":560,"Station Name":"Marshfield Ave & 59th St","Address":"Marshfield Ave & 59th St","Total Docks":11,"Docks in Service":11,"Status":"In Service","Location":"(41.786833, -87.666215)"},"geometry":{"type":"Point","coordinates":[-87.666215,41.786833]}},{"type":"Feature","properties":{"ID":495,"Station Name":"Keystone Ave & Montrose Ave","Address":"Keystone Ave & Montrose Ave","Total Docks":11,"Docks in Service":11,"Status":"In Service","Location":"(41.96110801623, -87.7289701012)"},"geometry":{"type":"Point","coordinates":[-87.728970101,41.961108016]}},{"type":"Feature","properties":{"ID":557,"Station Name":"Seeley Ave & Garfield Blvd","Address":"Seeley Ave & Garfield Blvd","Total Docks":11,"Docks in Service":11,"Status":"In Service","Location":"(41.794087, -87.675478)"},"geometry":{"type":"Point","coordinates":[-87.675478,41.794087]}},{"type":"Feature","properties":{"ID":562,"Station Name":"Racine Ave & 61st St","Address":"Racine Ave & 61st St","Total Docks":11,"Docks in Service":11,"Status":"In Service","Location":"(41.783189, -87.654372)"},"geometry":{"type":"Point","coordinates":[-87.654372,41.783189]}},{"type":"Feature","properties":{"ID":498,"Station Name":"California Ave & Fletcher St","Address":"California Ave & Fletcher St","Total Docks":19,"Docks in Service":19,"Status":"In Service","Location":"(41.93842879148, -87.698007756)"},"geometry":{"type":"Point","coordinates":[-87.698007756,41.938428791]}},{"type":"Feature","properties":{"ID":467,"Station Name":"Western Ave & Lunt Ave","Address":"Western Ave & Lunt Ave","Total Docks":15,"Docks in Service":15,"Status":"In Service","Location":"(42.0085943972, -87.6904922389)"},"geometry":{"type":"Point","coordinates":[-87.690492239,42.008594397]}},{"type":"Feature","properties":{"ID":237,"Station Name":"MLK Jr Dr & 29th St","Address":"MLK Jr Dr & 29th St","Total Docks":19,"Docks in Service":18,"Status":"In Service","Location":"(41.842052, -87.617)"},"geometry":{"type":"Point","coordinates":[-87.617,41.842052]}},{"type":"Feature","properties":{"ID":559,"Station Name":"Racine Ave & Garfield Blvd","Address":"Racine Ave & Garfield Blvd","Total Docks":11,"Docks in Service":11,"Status":"In Service","Location":"(41.794228, -87.655073)"},"geometry":{"type":"Point","coordinates":[-87.655073,41.794228]}},{"type":"Feature","properties":{"ID":446,"Station Name":"Western Ave & 28th St","Address":"Western Ave & 28th St","Total Docks":11,"Docks in Service":11,"Status":"In Service","Location":"(41.84151770807, -87.6851314409)"},"geometry":{"type":"Point","coordinates":[-87.685131441,41.841517708]}},{"type":"Feature","properties":{"ID":443,"Station Name":"Millard Ave & 26th St","Address":"Millard Ave & 26th St","Total Docks":7,"Docks in Service":7,"Status":"In Service","Location":"(41.84456684891, -87.7159103081)"},"geometry":{"type":"Point","coordinates":[-87.715910308,41.844566849]}},{"type":"Feature","properties":{"ID":445,"Station Name":"California Ave & 26th St","Address":"California Ave & 26th St","Total Docks":11,"Docks in Service":11,"Status":"In Service","Location":"(41.84404003127, -87.6952959227)"},"geometry":{"type":"Point","coordinates":[-87.695295923,41.844040031]}},{"type":"Feature","properties":{"ID":414,"Station Name":"Canal St & Taylor St","Address":"Canal St & Taylor St","Total Docks":15,"Docks in Service":15,"Status":"In Service","Location":"(41.870257, -87.639474)"},"geometry":{"type":"Point","coordinates":[-87.639474,41.870257]}},{"type":"Feature","properties":{"ID":253,"Station Name":"Winthrop Ave & Lawrence Ave","Address":"Winthrop Ave & Lawrence Ave","Total Docks":15,"Docks in Service":15,"Status":"In Service","Location":"(41.968812, -87.657659)"},"geometry":{"type":"Point","coordinates":[-87.657659,41.968812]}},{"type":"Feature","properties":{"ID":256,"Station Name":"Broadway & Sheridan Rd","Address":"Broadway & Sheridan Rd","Total Docks":15,"Docks in Service":15,"Status":"In Service","Location":"(41.952833, -87.649993)"},"geometry":{"type":"Point","coordinates":[-87.649993,41.952833]}},{"type":"Feature","properties":{"ID":438,"Station Name":"Central Park Ave & Ogden Ave","Address":"Central Park Ave & Ogden Ave","Total Docks":15,"Docks in Service":15,"Status":"In Service","Location":"(41.85420431327, -87.7154058381)"},"geometry":{"type":"Point","coordinates":[-87.715405838,41.854204313]}},{"type":"Feature","properties":{"ID":370,"Station Name":"Calumet Ave & 21st St","Address":"Calumet Ave & 21st St","Total Docks":15,"Docks in Service":15,"Status":"In Service","Location":"(41.85418424947, -87.6191537415)"},"geometry":{"type":"Point","coordinates":[-87.619153741,41.854184249]}},{"type":"Feature","properties":{"ID":288,"Station Name":"Larrabee St & Armitage Ave","Address":"Off Street","Total Docks":15,"Docks in Service":15,"Status":"In Service","Location":"(41.918084, -87.643749)"},"geometry":{"type":"Point","coordinates":[-87.643749,41.918084]}},{"type":"Feature","properties":{"ID":441,"Station Name":"Kedzie Ave & 24th St","Address":"Kedzie Ave & 24th St","Total Docks":11,"Docks in Service":11,"Status":"In Service","Location":"(41.84819094491, -87.7054137458)"},"geometry":{"type":"Point","coordinates":[-87.705413746,41.848190945]}},{"type":"Feature","properties":{"ID":247,"Station Name":"Shore Dr & 55th St","Address":"Shore Dr & 55th St","Total Docks":19,"Docks in Service":19,"Status":"In Service","Location":"(41.795212, -87.580715)"},"geometry":{"type":"Point","coordinates":[-87.580715,41.795212]}},{"type":"Feature","properties":{"ID":262,"Station Name":"Halsted St & 37th St","Address":"On Street","Total Docks":11,"Docks in Service":11,"Status":"In Service","Location":"(41.827059, -87.64572)"},"geometry":{"type":"Point","coordinates":[-87.64572,41.827059]}},{"type":"Feature","properties":{"ID":493,"Station Name":"Western Ave & Roscoe St","Address":"Western Ave & Roscoe St","Total Docks":11,"Docks in Service":11,"Status":"In Service","Location":"(41.943034, -87.687288)"},"geometry":{"type":"Point","coordinates":[-87.687288,41.943034]}},{"type":"Feature","properties":{"ID":518,"Station Name":"Conservatory Dr & Lake St","Address":"Conservatory Dr & Lake St","Total Docks":11,"Docks in Service":11,"Status":"In Service","Location":"(41.885502, -87.716866)"},"geometry":{"type":"Point","coordinates":[-87.716866,41.885502]}},{"type":"Feature","properties":{"ID":552,"Station Name":"Ashland Ave & McDowell Ave","Address":"Ashland Ave & McDowell Ave","Total Docks":11,"Docks in Service":11,"Status":"In Service","Location":"(41.80887, -87.66454)"},"geometry":{"type":"Point","coordinates":[-87.66454,41.80887]}},{"type":"Feature","properties":{"ID":485,"Station Name":"Sawyer Ave & Irving Park Rd","Address":"Sawyer Ave & Irving Park Rd","Total Docks":15,"Docks in Service":15,"Status":"In Service","Location":"(41.95358617895, -87.7093107999)"},"geometry":{"type":"Point","coordinates":[-87.7093108,41.953586179]}},{"type":"Feature","properties":{"ID":483,"Station Name":"Avondale Ave & Irving Park Rd","Address":"Avondale Ave & Irving Park Rd","Total Docks":19,"Docks in Service":19,"Status":"In Service","Location":"(41.953393, -87.732002)"},"geometry":{"type":"Point","coordinates":[-87.732002,41.953393]}},{"type":"Feature","properties":{"ID":226,"Station Name":"Racine Ave & Belmont Ave","Address":"Racine Ave & Belmont Ave","Total Docks":15,"Docks in Service":15,"Status":"In Service","Location":"(41.939743, -87.658865)"},"geometry":{"type":"Point","coordinates":[-87.658865,41.939743]}},{"type":"Feature","properties":{"ID":225,"Station Name":"Halsted St & Dickens Ave","Address":"Halsted St & Dickens Ave","Total Docks":23,"Docks in Service":23,"Status":"In Service","Location":"(41.919936, -87.64883)"},"geometry":{"type":"Point","coordinates":[-87.64883,41.919936]}},{"type":"Feature","properties":{"ID":593,"Station Name":"Halsted St & 59th St","Address":"Halsted St & 59th St","Total Docks":11,"Docks in Service":11,"Status":"In Service","Location":"(41.787539, -87.644874)"},"geometry":{"type":"Point","coordinates":[-87.644874,41.787539]}},{"type":"Feature","properties":{"ID":561,"Station Name":"Damen Ave & 59th St","Address":"Damen Ave & 59th St","Total Docks":11,"Docks in Service":11,"Status":"In Service","Location":"(41.78602, -87.674167)"},"geometry":{"type":"Point","coordinates":[-87.674167,41.78602]}},{"type":"Feature","properties":{"ID":295,"Station Name":"Broadway & Argyle St","Address":"Broadway & Argyle St","Total Docks":19,"Docks in Service":19,"Status":"In Service","Location":"(41.973815, -87.65966)"},"geometry":{"type":"Point","coordinates":[-87.65966,41.973815]}},{"type":"Feature","properties":{"ID":546,"Station Name":"Damen Ave & Pershing Rd","Address":"Damen Ave & Pershing Rd","Total Docks":11,"Docks in Service":11,"Status":"In Service","Location":"(41.823192, -87.676597)"},"geometry":{"type":"Point","coordinates":[-87.676597,41.823192]}},{"type":"Feature","properties":{"ID":241,"Station Name":"Morgan St & Polk St","Address":"Morgan St & Polk St","Total Docks":19,"Docks in Service":18,"Status":"In Service","Location":"(41.871737, -87.65103)"},"geometry":{"type":"Point","coordinates":[-87.65103,41.871737]}},{"type":"Feature","properties":{"ID":88,"Station Name":"Racine Ave & Randolph St","Address":"1213 W Randolph St","Total Docks":19,"Docks in Service":18,"Status":"In Service","Location":"(41.884069, -87.656853)"},"geometry":{"type":"Point","coordinates":[-87.656853,41.884069]}},{"type":"Feature","properties":{"ID":30,"Station Name":"Ashland Ave & Augusta Blvd","Address":"1611 W. Augusta Blvd","Total Docks":15,"Docks in Service":15,"Status":"In Service","Location":"(41.899643, -87.6677)"},"geometry":{"type":"Point","coordinates":[-87.6677,41.899643]}},{"type":"Feature","properties":{"ID":60,"Station Name":"Dayton St & North Ave","Address":"1575 N Dayton St","Total Docks":19,"Docks in Service":19,"Status":"In Service","Location":"(41.9105780349, -87.6494219288)"},"geometry":{"type":"Point","coordinates":[-87.649421929,41.910578035]}},{"type":"Feature","properties":{"ID":565,"Station Name":"Ashland Ave & 66th St","Address":"Ashland Ave & 66th St","Total Docks":7,"Docks in Service":7,"Status":"In Service","Location":"(41.774074, -87.663815)"},"geometry":{"type":"Point","coordinates":[-87.663815,41.774074]}},{"type":"Feature","properties":{"ID":605,"Station Name":"University Library (NU)","Address":"University Library (NU)","Total Docks":15,"Docks in Service":15,"Status":"In Service","Location":"(42.052939, -87.673447)"},"geometry":{"type":"Point","coordinates":[-87.673447,42.052939]}},{"type":"Feature","properties":{"ID":324,"Station Name":"Stockton Dr & Wrightwood Ave","Address":"Stockton Dr & Wrightwood Ave","Total Docks":15,"Docks in Service":15,"Status":"In Service","Location":"(41.93132, -87.638742)"},"geometry":{"type":"Point","coordinates":[-87.638742,41.93132]}},{"type":"Feature","properties":{"ID":598,"Station Name":"Elmwood Ave & Austin St","Address":"Elmwood Ave & Austin St","Total Docks":15,"Docks in Service":15,"Status":"In Service","Location":"(42.025784, -87.684107)"},"geometry":{"type":"Point","coordinates":[-87.684107,42.025784]}},{"type":"Feature","properties":{"ID":320,"Station Name":"Loomis St & Lexington St","Address":"Loomis St & Lexington St","Total Docks":19,"Docks in Service":19,"Status":"In Service","Location":"(41.872187, -87.661501)"},"geometry":{"type":"Point","coordinates":[-87.661501,41.872187]}},{"type":"Feature","properties":{"ID":317,"Station Name":"Wood St & Taylor St","Address":"Wood St & Taylor St","Total Docks":23,"Docks in Service":23,"Status":"In Service","Location":"(41.869154, -87.671045)"},"geometry":{"type":"Point","coordinates":[-87.671045,41.869154]}},{"type":"Feature","properties":{"ID":224,"Station Name":"Halsted St & Willow St","Address":"Halsted St & Willow St","Total Docks":19,"Docks in Service":19,"Status":"In Service","Location":"(41.913865, -87.648755)"},"geometry":{"type":"Point","coordinates":[-87.648755,41.913865]}},{"type":"Feature","properties":{"ID":600,"Station Name":"Dodge Ave & Church St","Address":"Dodge Ave & Church St","Total Docks":15,"Docks in Service":15,"Status":"In Service","Location":"(42.048308, -87.698224)"},"geometry":{"type":"Point","coordinates":[-87.698224,42.048308]}},{"type":"Feature","properties":{"ID":573,"Station Name":"State St & 79th St","Address":"State St & 79th St","Total Docks":11,"Docks in Service":11,"Status":"In Service","Location":"(41.750794, -87.624424)"},"geometry":{"type":"Point","coordinates":[-87.624424,41.750794]}},{"type":"Feature","properties":{"ID":599,"Station Name":"Valli Produce - Evanston Plaza","Address":"Valli Produce - Evanston Plaza","Total Docks":15,"Docks in Service":15,"Status":"In Service","Location":"(42.039742, -87.699413)"},"geometry":{"type":"Point","coordinates":[-87.699413,42.039742]}},{"type":"Feature","properties":{"ID":601,"Station Name":"Central St Metra","Address":"Central St Metra","Total Docks":15,"Docks in Service":15,"Status":"In Service","Location":"(42.063598, -87.69873)"},"geometry":{"type":"Point","coordinates":[-87.69873,42.063598]}},{"type":"Feature","properties":{"ID":307,"Station Name":"Southport Ave & Clybourn Ave","Address":"Southport Ave & Clybourn Ave","Total Docks":15,"Docks in Service":15,"Status":"In Service","Location":"(41.920771, -87.663712)"},"geometry":{"type":"Point","coordinates":[-87.663712,41.920771]}},{"type":"Feature","properties":{"ID":112,"Station Name":"Green St & Randolph St","Address":"Green St & Randolph St","Total Docks":15,"Docks in Service":15,"Status":"In Service","Location":"(41.883668, -87.64867)"},"geometry":{"type":"Point","coordinates":[-87.64867,41.883668]}},{"type":"Feature","properties":{"ID":120,"Station Name":"Wentworth Ave & Cermak Rd (Temp)","Address":"Wentworth Ave & Cermak Rd (Temp)","Total Docks":19,"Docks in Service":19,"Status":"In Service","Location":"(41.853005, -87.630578)"},"geometry":{"type":"Point","coordinates":[-87.630578,41.853005]}},{"type":"Feature","properties":{"ID":100,"Station Name":"Orleans St & Merchandise Mart Plaza","Address":"333 N Orleans St","Total Docks":35,"Docks in Service":35,"Status":"In Service","Location":"(41.888243, -87.63639)"},"geometry":{"type":"Point","coordinates":[-87.63639,41.888243]}},{"type":"Feature","properties":{"ID":522,"Station Name":"Bosworth Ave & Howard St","Address":"Bosworth Ave & Howard St","Total Docks":11,"Docks in Service":11,"Status":"In Service","Location":"(42.019537, -87.669563)"},"geometry":{"type":"Point","coordinates":[-87.669563,42.019537]}},{"type":"Feature","properties":{"ID":574,"Station Name":"Eberhart (Vernon) Ave & 79th St","Address":"Eberhart (Vernon) Ave & 79th St","Total Docks":11,"Docks in Service":11,"Status":"In Service","Location":"(41.751345, -87.612568)"},"geometry":{"type":"Point","coordinates":[-87.612568,41.751345]}},{"type":"Feature","properties":{"ID":564,"Station Name":"Racine Ave & 65th St","Address":"Racine Ave & 65th St","Total Docks":11,"Docks in Service":11,"Status":"In Service","Location":"(41.775393, -87.654308)"},"geometry":{"type":"Point","coordinates":[-87.654308,41.775393]}},{"type":"Feature","properties":{"ID":525,"Station Name":"Glenwood Ave & Touhy Ave","Address":"Glenwood Ave & Touhy Ave","Total Docks":15,"Docks in Service":15,"Status":"In Service","Location":"(42.012701, -87.666058)"},"geometry":{"type":"Point","coordinates":[-87.666058,42.012701]}},{"type":"Feature","properties":{"ID":554,"Station Name":"Damen Ave & 51st St","Address":"Damen Ave & 51st St","Total Docks":7,"Docks in Service":7,"Status":"In Service","Location":"(41.800908, -87.674684)"},"geometry":{"type":"Point","coordinates":[-87.674684,41.800908]}},{"type":"Feature","properties":{"ID":602,"Station Name":"Central St & Girard Ave","Address":"Central St & Girard Ave","Total Docks":15,"Docks in Service":15,"Status":"In Service","Location":"(42.064313, -87.686152)"},"geometry":{"type":"Point","coordinates":[-87.686152,42.064313]}},{"type":"Feature","properties":{"ID":517,"Station Name":"Clark St & Jarvis Ave","Address":"Clark St & Jarvis Ave","Total Docks":11,"Docks in Service":11,"Status":"In Service","Location":"(42.015963, -87.675005)"},"geometry":{"type":"Point","coordinates":[-87.675005,42.015963]}},{"type":"Feature","properties":{"ID":382,"Station Name":"Western Ave & Congress Pkwy","Address":"Western Ave & Congress Pkwy","Total Docks":19,"Docks in Service":19,"Status":"In Service","Location":"(41.87474885079, -87.6864452757)"},"geometry":{"type":"Point","coordinates":[-87.686445276,41.874748851]}},{"type":"Feature","properties":{"ID":526,"Station Name":"Oakley Ave & Touhy Ave","Address":"Oakley Ave & Touhy Ave","Total Docks":11,"Docks in Service":11,"Status":"In Service","Location":"(42.012342, -87.688243)"},"geometry":{"type":"Point","coordinates":[-87.688243,42.012342]}},{"type":"Feature","properties":{"ID":328,"Station Name":"Ellis Ave & 58th St","Address":"Ellis Ave & 58th St","Total Docks":19,"Docks in Service":19,"Status":"In Service","Location":"(41.788746, -87.601334)"},"geometry":{"type":"Point","coordinates":[-87.601334,41.788746]}},{"type":"Feature","properties":{"ID":331,"Station Name":"Halsted St & Clybourn Ave (*)","Address":"Halsted St & Clybourn Ave (*)","Total Docks":28,"Docks in Service":27,"Status":"In Service","Location":"(41.909668, -87.648128)"},"geometry":{"type":"Point","coordinates":[-87.648128,41.909668]}},{"type":"Feature","properties":{"ID":432,"Station Name":"Clark St & Lunt Ave","Address":"Clark St & Lunt Ave","Total Docks":19,"Docks in Service":19,"Status":"In Service","Location":"(42.009074, -87.67419)"},"geometry":{"type":"Point","coordinates":[-87.67419,42.009074]}},{"type":"Feature","properties":{"ID":527,"Station Name":"Western Ave & Howard St","Address":"Western Ave & Howard St","Total Docks":15,"Docks in Service":12,"Status":"In Service","Location":"(42.018901, -87.690048)"},"geometry":{"type":"Point","coordinates":[-87.690048,42.018901]}},{"type":"Feature","properties":{"ID":520,"Station Name":"Greenview Ave & Jarvis Ave","Address":"Greenview Ave & Jarvis Ave","Total Docks":19,"Docks in Service":19,"Status":"In Service","Location":"(42.015962, -87.66857)"},"geometry":{"type":"Point","coordinates":[-87.66857,42.015962]}},{"type":"Feature","properties":{"ID":183,"Station Name":"Damen Ave & Thomas St (Augusta Blvd)","Address":"Damen Ave & Thomas St (Augusta Blvd)","Total Docks":23,"Docks in Service":23,"Status":"In Service","Location":"(41.901315, -87.677409)"},"geometry":{"type":"Point","coordinates":[-87.677409,41.901315]}},{"type":"Feature","properties":{"ID":142,"Station Name":"McClurg Ct & Erie St","Address":"660 N McClurg Ct","Total Docks":31,"Docks in Service":31,"Status":"In Service","Location":"(41.894503, -87.617854)"},"geometry":{"type":"Point","coordinates":[-87.617854,41.894503]}},{"type":"Feature","properties":{"ID":207,"Station Name":"Emerald Ave & 28th St","Address":"Emerald Ave & 28th St","Total Docks":15,"Docks in Service":15,"Status":"In Service","Location":"(41.84358, -87.645368)"},"geometry":{"type":"Point","coordinates":[-87.645368,41.84358]}},{"type":"Feature","properties":{"ID":15,"Station Name":"Racine Ave & 18th St","Address":"1726 S Racine Ave","Total Docks":15,"Docks in Service":15,"Status":"In Service","Location":"(41.858166, -87.656495)"},"geometry":{"type":"Point","coordinates":[-87.656495,41.858166]}},{"type":"Feature","properties":{"ID":194,"Station Name":"Wabash Ave & Wacker Pl","Address":"Wabash Ave & Wacker Pl","Total Docks":19,"Docks in Service":19,"Status":"In Service","Location":"(41.886875, -87.62603)"},"geometry":{"type":"Point","coordinates":[-87.62603,41.886875]}},{"type":"Feature","properties":{"ID":334,"Station Name":"Lake Shore Dr & Belmont Ave","Address":"Lake Shore Dr & Belmont Ave","Total Docks":19,"Docks in Service":19,"Status":"In Service","Location":"(41.940775, -87.639192)"},"geometry":{"type":"Point","coordinates":[-87.639192,41.940775]}},{"type":"Feature","properties":{"ID":299,"Station Name":"Halsted St & Roscoe St","Address":"Halsted St & Roscoe St","Total Docks":15,"Docks in Service":15,"Status":"In Service","Location":"(41.94367, -87.64895)"},"geometry":{"type":"Point","coordinates":[-87.64895,41.94367]}},{"type":"Feature","properties":{"ID":297,"Station Name":"Paulina St & Montrose Ave","Address":"Paulina St & Montrose Ave","Total Docks":15,"Docks in Service":15,"Status":"In Service","Location":"(41.961507, -87.671387)"},"geometry":{"type":"Point","coordinates":[-87.671387,41.961507]}},{"type":"Feature","properties":{"ID":306,"Station Name":"Sheridan Rd & Buena Ave","Address":"Sheridan Rd & Buena Ave","Total Docks":19,"Docks in Service":19,"Status":"In Service","Location":"(41.958494, -87.654966)"},"geometry":{"type":"Point","coordinates":[-87.654966,41.958494]}},{"type":"Feature","properties":{"ID":202,"Station Name":"Halsted St & 18th St","Address":"Halsted St & 18th St","Total Docks":15,"Docks in Service":15,"Status":"In Service","Location":"(41.857499, -87.646277)"},"geometry":{"type":"Point","coordinates":[-87.646277,41.857499]}},{"type":"Feature","properties":{"ID":318,"Station Name":"Southport Ave & Irving Park Rd","Address":"Southport Ave & Irving Park Rd","Total Docks":15,"Docks in Service":15,"Status":"In Service","Location":"(41.954177, -87.664358)"},"geometry":{"type":"Point","coordinates":[-87.664358,41.954177]}},{"type":"Feature","properties":{"ID":311,"Station Name":"Leavitt St & Lawrence Ave","Address":"Leavitt St & Lawrence Ave","Total Docks":19,"Docks in Service":19,"Status":"In Service","Location":"(41.968885, -87.684001)"},"geometry":{"type":"Point","coordinates":[-87.684001,41.968885]}},